$GPGSV,3,3,11,27,38,272,00,28,56,066,00,33,33,214,00*4E
$GPGLL,4424.8422,N,00852.8469,E,122230,V*3B
$GPVTG,,T,,M,,N,,K*4E
$GPRMC,122231,V,4424.8422,N,00852.8469,E,,,010611,000.9,E*68
$GPGGA,122231,4424.8422,N,00852.8469,E,0,00,,,M,,M,,*5A
$GPGSA,A,1,,,,,,,,,,,,,,,*1E
$GPGSV,3,1,11,05,28,196,00,08,25,064,00,09,18,265,00,15,53,306,00*71
$GPGSV,3,2,11,17,15,125,00,18,11,323,00,21,00,293,00,26,83,077,00*73
$GPGSV,3,3,11,27,38,272,00,28,56,066,00,33,33,214,00*4E
$GPGLL,4424.8422,N,00852.8469,E,122231,V*3A
$GPVTG,,T,,M,,N,,K*4E
$GPRMC,122232,V,4424.8422,N,00852.8469,E,,,010611,000.9,E*6B
$GPGGA,122232,4424.8422,N,00852.8469,E,0,00,,,M,,M,,*59
$GPGSA,A,1,,,,,,,,,,,,,,,*1E
$GPGSV,3,1,11,05,28,196,00,08,25,064,00,09,18,265,00,15,53,306,00*71
$GPGSV,3,2,11,17,15,125,00,18,11,323,00,21,00,293,00,26,83,077,00*73
$GPGSV,3,3,11,27,38,272,00,28,56,066,00,33,33,214,00*4E
$GPGLL,4424.8422,N,00852.8469,E,122232,V*39
$GPVTG,,T,,M,,N,,K*4E
$GPRMC,122233,V,4424.8422,N,00852.8469,E,,,010611,000.9,E*6A
$GPGGA,122233,4424.8422,N,00852.8469,E,0,00,,,M,,M,,*58
$GPGSA,A,1,,,,,,,,,,,,,,,*1E
$GPGSV,3,1,11,05,28,196,00,08,25,064,00,09,18,265,00,15,53,306,00*71
$GPGSV,3,2,11,17,15,125,00,18,11,323,00,21,00,293,00,26,83,077,00*73
$GPGSV,3,3,11,27,38,272,00,28,56,066,00,33,33,214,00*4E
$GPGLL,4424.8422,N,00852.8469,E,122233,V*38
$GPVTG,,T,,M,,N,,K*4E
$GPRMC,122234,V,4424.8422,N,00852.8469,E,,,010611,000.9,E*6D
$GPGGA,122234,4424.8422,N,00852.8469,E,0,00,,,M,,M,,*5F
$GPGSA,A,1,,,,,,,,,,,,,,,*1E
$GPGSV,3,1,11,05,28,196,00,08,25,064,00,09,18,265,00,15,53,306,00*71
$GPGSV,3,2,11,17,15,125,00,18,11,323,00,21,00,293,00,26,83,077,00*73
$GPGSV,3,3,11,27,38,272,00,28,56,066,00,33,33,214,00*4E
$GPGLL,4424.8422,N,00852.8469,E,122234,V*3F
$GPVTG,,T,,M,,N,,K*4E
$GPRMC,122235,V,4424.8422,N,00852.8469,E,,,010611,000.9,E*6C
$GPGGA,122235,4424.8422,N,00852.8469,E,0,00,,,M,,M,,*5E
$GPGSA,A,1,,,,,,,,,,,,,,,*1E
$GPGSV,3,1,11,05,28,196,00,08,25,064,00,09,18,265,00,15,53,306,00*71
$GPGSV,3,2,11,17,15,125,00,18,11,323,00,21,00,293,00,26,83,077,00*73
$GPGSV,3,3,11,27,38,272,00,28,56,066,00,33,33,214,00*4E
$GPGLL,4424.8422,N,00852.8469,E,122235,V*3E
$GPVTG,,T,,M,,N,,K*4E
$GPRMC,122236,V,4424.8422,N,00852.8469,E,,,010611,000.9,E*6F
$GPGGA,122236,4424.8422,N,00852.8469,E,0,00,,,M,,M,,*5D
$GPGSA,A,1,,,,,,,,,,,,,,,*1E
$GPGSV,3,1,11,05,28,196,00,08,25,064,00,09,18,265,00,15,53,306,00*71
$GPGSV,3,2,11,17,15,125,00,18,11,323,00,21,00,293,00,26,83,077,00*73
$GPGSV,3,3,11,27,38,272,00,28,56,066,00,33,33,214,00*4E
$GPGLL,4424.8422,N,00852.8469,E,122236,V*3D
$GPVTG,,T,,M,,N,,K*4E
$GPRMC,122237,V,4424.8422,N,00852.8469,E,,,010611,000.9,E*6E
$GPGGA,122237,4424.8422,N,00852.8469,E,0,00,,,M,,M,,*5C
$GPGSA,A,1,,,,,,,,,,,,,,,*1E
$GPGSV,3,1,11,05,28,196,00,08,25,064,00,09,18,265,00,15,53,306,00*71
$GPGSV,3,2,11,17,15,125,00,18,11,323,00,21,00,293,00,26,83,077,00*73
$GPGSV,3,3,11,27,38,272,00,28,56,066,00,33,33,214,00*4E
$GPGLL,4424.8422,N,00852.8469,E,122237,V*3C
$GPVTG,,T,,M,,N,,K*4E
$GPRMC,122238,V,4424.8422,N,00852.8469,E,,,010611,000.9,E*61
$GPGGA,122238,4424.8422,N,00852.8469,E,0,00,,,M,,M,,*53
$GPGSA,A,1,,,,,,,,,,,,,,,*1E
$GPGSV,3,1,11,05,28,196,00,08,25,064,00,09,18,265,00,15,53,306,00*71
$GPGSV,3,2,11,17,15,125,00,18,11,323,00,21,00,293,00,26,83,077,00*73
$GPGSV,3,3,11,27,38,272,00,28,56,066,00,33,33,214,00*4E
$GPGLL,4424.8422,N,00852.8469,E,122238,V*33
$GPVTG,,T,,M,,N,,K*4E
$GPRMC,122239,V,4424.8422,N,00852.8469,E,,,010611,000.9,E*60
$GPGGA,122239,4424.8422,N,00852.8469,E,0,00,,,M,,M,,*52
$GPGSA,A,1,,,,,,,,,,,,,,,*1E
$GPGSV,3,1,11,05,28,196,00,08,25,064,00,09,18,265,00,15,53,306,00*71
$GPGSV,3,2,11,17,15,125,00,18,11,323,00,21,00,293,00,26,83,077,00*73
$GPGSV,3,3,11,27,38,272,00,28,56,066,00,33,33,214,00*4E
$GPGLL,4424.8422,N,00852.8469,E,122239,V*32
$GPVTG,,T,,M,,N,,K*4E
$GPRMC,122240,V,4424.8422,N,00852.8469,E,,,010611,000.9,E*6E
$GPGGA,122240,4424.8422,N,00852.8469,E,0,00,,,M,,M,,*5C
$GPGSA,A,1,,,,,,,,,,,,,,,*1E
$GPGSV,3,1,11,05,28,196,00,08,25,064,00,09,18,265,00,15,53,306,00*71
$GPGSV,3,2,11,17,15,125,00,18,11,323,00,21,00,293,00,26,83,077,00*73
$GPGSV,3,3,11,27,38,272,00,28,56,066,00,33,33,214,00*4E
$GPGLL,4424.8422,N,00852.8469,E,122240,V*3C
$GPVTG,,T,,M,,N,,K*4E
$GPRMC,122241,V,4424.8422,N,00852.8469,E,,,010611,000.9,E*6F
$GPGGA,122241,4424.8422,N,00852.8469,E,0,00,,,M,,M,,*5D
$GPGSA,A,1,,,,,,,,,,,,,,,*1E
$GPGSV,3,1,11,05,28,196,00,08,25,064,00,09,18,265,00,15,53,306,00*71
$GPGSV,3,2,11,17,15,125,00,18,11,323,00,21,00,293,00,26,82,082,00*78
$GPGSV,3,3,11,27,38,272,00,28,56,066,00,33,33,214,00*4E
$GPGLL,4424.8422,N,00852.8469,E,122241,V*3D
$GPVTG,,T,,M,,N,,K*4E
$GPRMC,122242,V,4424.8422,N,00852.8469,E,,,010611,000.9,E*6C
$GPGGA,122242,4424.8422,N,00852.8469,E,0,00,,,M,,M,,*5E
$GPGSA,A,1,,,,,,,,,,,,,,,*1E
$GPGSV,3,1,11,05,28,196,00,08,25,064,00,09,18,265,00,15,53,306,00*71
$GPGSV,3,2,11,17,15,125,00,18,11,323,00,21,00,293,00,26,82,082,00*78
$GPGSV,3,3,11,27,38,272,00,28,56,066,00,33,33,214,00*4E
$GPGLL,4424.8422,N,00852.8469,E,122242,V*3E
$GPVTG,,T,,M,,N,,K*4E
$GPRMC,122243,V,4424.8422,N,00852.8469,E,,,010611,000.9,E*6D
$GPGGA,122243,4424.8422,N,00852.8469,E,0,00,,,M,,M,,*5F
$GPGSA,A,1,,,,,,,,,,,,,,,*1E
$GPGSV,3,1,11,05,28,196,00,08,25,064,00,09,18,265,00,15,53,306,00*71
$GPGSV,3,2,11,17,15,125,00,18,11,323,00,21,00,293,00,26,82,082,00*78
$GPGSV,3,3,11,27,38,272,00,28,56,066,00,33,33,214,00*4E
$GPGLL,4424.8422,N,00852.8469,E,122243,V*3F
$GPVTG,,T,,M,,N,,K*4E
$GPRMC,122244,V,4424.8422,N,00852.8469,E,,,010611,000.9,E*6A
$GPGGA,122244,4424.8422,N,00852.8469,E,0,00,,,M,,M,,*58
$GPGSA,A,1,,,,,,,,,,,,,,,*1E
$GPGSV,3,1,11,05,28,196,00,08,25,064,00,09,18,265,00,15,53,306,00*71
$GPGSV,3,2,11,17,15,125,00,18,11,323,00,21,00,293,00,26,82,082,00*78
$GPGSV,3,3,11,27,38,272,00,28,56,066,00,33,33,214,00*4E
$GPGLL,4424.8422,N,00852.8469,E,122244,V*38
$GPVTG,,T,,M,,N,,K*4E
$GPRMC,122245,V,4424.8422,N,00852.8469,E,,,010611,000.9,E*6B
$GPGGA,122245,4424.8422,N,00852.8469,E,0,00,,,M,,M,,*59
$GPGSA,A,1,,,,,,,,,,,,,,,*1E
$GPGSV,3,1,11,05,28,196,00,08,25,064,00,09,18,265,00,15,53,306,00*71
$GPGSV,3,2,11,17,15,125,00,18,11,323,00,21,00,293,00,26,82,082,00*78
$GPGSV,3,3,11,27,39,273,00,28,56,066,00,33,33,214,00*4E
$GPGLL,4424.8422,N,00852.8469,E,122245,V*39
$GPVTG,,T,,M,,N,,K*4E
$GPRMC,122246,V,4424.8422,N,00852.8469,E,,,010611,000.9,E*68
$GPGGA,122246,4424.8422,N,00852.8469,E,0,00,,,M,,M,,*5A
$GPGSA,A,1,,,,,,,,,,,,,,,*1E
$GPGSV,3,1,11,05,28,196,00,08,25,064,00,09,18,265,00,15,53,306,00*71
$GPGSV,3,2,11,17,15,125,00,18,11,323,00,21,00,293,00,26,82,082,00*78
$GPGSV,3,3,11,27,39,273,00,28,56,066,00,33,33,214,00*4E
$GPGLL,4424.8422,N,00852.8469,E,122246,V*3A
$GPVTG,,T,,M,,N,,K*4E
$GPRMC,122247,V,4424.8422,N,00852.8469,E,,,010611,000.9,E*69
$GPGGA,122247,4424.8422,N,00852.8469,E,0,00,,,M,,M,,*5B
$GPGSA,A,1,,,,,,,,,,,,,,,*1E
$GPGSV,3,1,11,05,28,196,00,08,25,064,00,09,18,265,00,15,53,306,00*71
$GPGSV,3,2,11,17,15,125,00,18,11,323,00,21,00,293,00,26,82,082,00*78
$GPGSV,3,3,11,27,39,273,00,28,56,066,00,33,33,214,00*4E
$GPGLL,4424.8422,N,00852.8469,E,122247,V*3B
$GPVTG,,T,,M,,N,,K*4E
$GPRMC,122248,V,4424.8422,N,00852.8469,E,,,010611,000.9,E*66
$GPGGA,122248,4424.8422,N,00852.8469,E,0,00,,,M,,M,,*54
$GPGSA,A,1,,,,,,,,,,,,,,,*1E
$GPGSV,3,1,11,05,28,196,00,08,25,064,00,09,18,265,00,15,53,306,00*71
$GPGSV,3,2,11,17,15,125,00,18,11,323,00,21,00,293,00,26,82,082,00*78
$GPGSV,3,3,11,27,39,273,00,28,56,065,00,33,33,214,00*4D
$GPGLL,4424.8422,N,00852.8469,E,122248,V*34
$GPVTG,,T,,M,,N,,K*4E
$GPRMC,122249,V,4424.8422,N,00852.8469,E,,,010611,000.9,E*67
$GPGGA,122249,4424.8422,N,00852.8469,E,0,00,,,M,,M,,*55
$GPGSA,A,1,,,,,,,,,,,,,,,*1E
$GPGSV,3,1,11,05,28,196,00,08,25,064,00,09,18,265,00,15,53,306,00*71
$GPGSV,3,2,11,17,15,125,00,18,11,323,00,21,00,293,00,26,82,082,00*78
$GPGSV,3,3,11,27,39,273,00,28,56,065,00,33,33,214,00*4D
$GPGLL,4424.8422,N,00852.8469,E,122249,V*35
$GPVTG,,T,,M,,N,,K*4E
$GPRMC,122250,V,4424.8422,N,00852.8469,E,,,010611,000.9,E*6F
$GPGGA,122250,4424.8422,N,00852.8469,E,0,00,,,M,,M,,*5D
$GPGSA,A,1,,,,,,,,,,,,,,,*1E
$GPGSV,3,1,11,05,28,196,00,08,25,064,00,09,18,265,00,15,53,306,00*71
$GPGSV,3,2,11,17,15,125,00,18,11,323,00,21,00,293,00,26,82,082,00*78
$GPGSV,3,3,11,27,39,273,00,28,56,065,00,33,33,214,00*4D
$GPGLL,4424.8422,N,00852.8469,E,122250,V*3D
$GPVTG,,T,,M,,N,,K*4E
$GPRMC,122251,V,4424.8422,N,00852.8469,E,,,010611,000.9,E*6E
$GPGGA,122251,4424.8422,N,00852.8469,E,0,00,,,M,,M,,*5C
$GPGSA,A,1,,,,,,,,,,,,,,,*1E
$GPGSV,3,1,11,05,28,196,00,08,25,064,00,09,18,265,00,15,53,306,00*71
$GPGSV,3,2,11,17,15,125,00,18,11,323,00,21,00,293,00,26,82,082,00*78
$GPGSV,3,3,11,27,39,273,00,28,56,065,00,33,33,214,00*4D
$GPGLL,4424.8422,N,00852.8469,E,122251,V*3C
$GPVTG,,T,,M,,N,,K*4E
$GPRMC,122252,V,4424.8422,N,00852.8469,E,,,010611,000.9,E*6D
$GPGGA,122252,4424.8422,N,00852.8469,E,0,00,,,M,,M,,*5F
$GPGSA,A,1,,,,,,,,,,,,,,,*1E
$GPGSV,3,1,11,05,28,196,00,08,25,064,00,09,18,265,00,15,53,306,00*71
$GPGSV,3,2,11,17,15,125,00,18,11,323,00,21,00,293,00,26,82,082,00*78
$GPGSV,3,3,11,27,39,273,00,28,56,065,00,33,33,214,00*4D
$GPGLL,4424.8422,N,00852.8469,E,122252,V*3F
$GPVTG,,T,,M,,N,,K*4E
$GPRMC,122253,V,4424.8422,N,00852.8469,E,,,010611,000.9,E*6C
$GPGGA,122253,4424.8422,N,00852.8469,E,0,00,,,M,,M,,*5E
$GPGSA,A,1,,,,,,,,,,,,,,,*1E
$GPGSV,3,1,11,05,28,196,00,08,25,064,00,09,18,265,00,15,53,306,00*71
$GPGSV,3,2,11,17,15,125,00,18,11,323,00,21,00,293,00,26,82,082,00*78
$GPGSV,3,3,11,27,39,273,00,28,56,065,00,33,33,214,00*4D
$GPGLL,4424.8422,N,00852.8469,E,122253,V*3E
$GPVTG,,T,,M,,N,,K*4E
$GPRMC,122254,V,4424.8422,N,00852.8469,E,,,010611,000.9,E*6B
$GPGGA,122254,4424.8422,N,00852.8469,E,0,00,,,M,,M,,*59
$GPGSA,A,1,,,,,,,,,,,,,,,*1E
$GPGSV,3,1,11,05,28,196,00,08,25,064,00,09,18,265,00,15,53,306,00*71
$GPGSV,3,2,11,17,15,125,00,18,11,323,00,21,00,293,00,26,82,082,00*78
$GPGSV,3,3,11,27,39,273,00,28,56,065,00,33,33,214,00*4D
$GPGLL,4424.8422,N,00852.8469,E,122254,V*39
$GPVTG,,T,,M,,N,,K*4E
$GPRMC,122255,V,4424.8422,N,00852.8469,E,,,010611,000.9,E*6A
$GPGGA,122255,4424.8422,N,00852.8469,E,0,00,,,M,,M,,*58
$GPGSA,A,1,,,,,,,,,,,,,,,*1E
$GPGSV,3,1,11,05,28,196,00,08,25,064,00,09,18,265,00,15,53,306,00*71
$GPGSV,3,2,11,17,15,125,00,18,11,323,00,21,00,293,00,26,82,082,00*78
$GPGSV,3,3,11,27,39,273,00,28,56,065,00,33,33,214,00*4D
$GPGLL,4424.8422,N,00852.8469,E,122255,V*38
$GPVTG,,T,,M,,N,,K*4E
$GPRMC,122256,V,4424.8422,N,00852.8469,E,,,010611,000.9,E*69
$GPGGA,122256,4424.8422,N,00852.8469,E,0,00,,,M,,M,,*5B
$GPGSA,A,1,,,,,,,,,,,,,,,*1E
$GPGSV,3,1,11,05,28,196,00,08,25,064,00,09,18,265,00,15,53,306,00*71
$GPGSV,3,2,11,17,15,125,00,18,11,323,00,21,00,293,00,26,82,082,00*78
$GPGSV,3,3,11,27,39,273,00,28,56,065,00,33,33,214,00*4D
$GPGLL,4424.8422,N,00852.8469,E,122256,V*3B
$GPVTG,,T,,M,,N,,K*4E
$GPRMC,122257,V,4424.8422,N,00852.8469,E,,,010611,000.9,E*68
$GPGGA,122257,4424.8422,N,00852.8469,E,0,00,,,M,,M,,*5A
$GPGSA,A,1,,,,,,,,,,,,,,,*1E
$GPGSV,3,1,11,05,28,196,00,08,25,064,00,09,18,265,00,15,53,306,00*71
$GPGSV,3,2,11,17,15,125,00,18,11,323,00,21,00,293,00,26,82,082,00*78
$GPGSV,3,3,11,27,39,273,00,28,56,065,00,33,33,214,00*4D
$GPGLL,4424.8422,N,00852.8469,E,122257,V*3A
$GPVTG,,T,,M,,N,,K*4E
$GPRMC,122258,V,4424.8422,N,00852.8469,E,,,010611,000.9,E*67
$GPGGA,122258,4424.8422,N,00852.8469,E,0,00,,,M,,M,,*55
$GPGSA,A,1,,,,,,,,,,,,,,,*1E
$GPGSV,3,1,11,05,28,196,00,08,25,064,00,09,18,265,00,15,53,306,00*71
$GPGSV,3,2,11,17,15,125,00,18,11,323,00,21,00,293,00,26,82,082,00*78
$GPGSV,3,3,11,27,39,273,00,28,56,065,00,33,33,214,00*4D
$GPGLL,4424.8422,N,00852.8469,E,122258,V*35
$GPVTG,,T,,M,,N,,K*4E
$GPRMC,122259,V,4424.8422,N,00852.8469,E,,,010611,000.9,E*66
$GPGGA,122259,4424.8422,N,00852.8469,E,0,00,,,M,,M,,*54
$GPGSA,A,1,,,,,,,,,,,,,,,*1E
$GPGSV,3,1,11,05,28,196,00,08,25,064,00,09,18,265,00,15,53,306,00*71
$GPGSV,3,2,11,17,15,125,00,18,11,323,00,21,00,293,00,26,82,082,00*78
$GPGSV,3,3,11,27,39,273,00,28,56,065,00,33,33,214,00*4D
$GPGLL,4424.8422,N,00852.8469,E,122259,V*34
$GPVTG,,T,,M,,N,,K*4E
$GPRMC,122300,V,4424.8422,N,00852.8469,E,,,010611,000.9,E*6B
$GPGGA,122300,4424.8422,N,00852.8469,E,0,00,,,M,,M,,*59
$GPGSA,A,1,,,,,,,,,,,,,,,*1E
$GPGSV,3,1,11,05,28,196,00,08,25,064,00,09,18,265,00,15,53,306,00*71
$GPGSV,3,2,11,17,15,125,00,18,11,323,00,21,00,293,00,26,82,082,00*78
$GPGSV,3,3,11,27,39,273,00,28,56,065,00,33,33,214,00*4D
$GPGLL,4424.8422,N,00852.8469,E,122300,V*39
$GPVTG,,T,,M,,N,,K*4E
$GPRMC,122301,V,4424.8422,N,00852.8469,E,,,010611,000.9,E*6A
$GPGGA,122301,4424.8422,N,00852.8469,E,0,00,,,M,,M,,*58
$GPGSA,A,1,,,,,,,,,,,,,,,*1E
$GPGSV,3,1,11,05,28,196,00,08,25,064,00,09,18,265,00,15,53,306,00*71
$GPGSV,3,2,11,17,15,125,00,18,11,323,00,21,00,293,00,26,82,082,00*78
$GPGSV,3,3,11,27,39,273,00,28,56,065,38,33,33,214,00*46
$GPGLL,4424.8422,N,00852.8469,E,122301,V*38
$GPVTG,,T,,M,,N,,K*4E
$GPRMC,122302,V,4424.8422,N,00852.8469,E,,,010611,000.9,E*69
$GPGGA,122302,4424.8422,N,00852.8469,E,0,00,,,M,,M,,*5B
$GPGSA,A,1,,,,,,,,,,,,,,,*1E
$GPGSV,3,1,11,05,28,196,00,08,25,064,00,09,18,265,00,15,53,306,00*71
$GPGSV,3,2,11,17,15,125,00,18,11,323,00,21,00,293,00,26,82,082,00*78
$GPGSV,3,3,11,27,39,273,00,28,56,065,38,33,33,214,00*46
$GPGLL,4424.8422,N,00852.8469,E,122302,V*3B
$GPVTG,,T,,M,,N,,K*4E
$GPRMC,122303,V,4424.8422,N,00852.8469,E,,,010611,000.9,E*68
$GPGGA,122303,4424.8422,N,00852.8469,E,0,00,,,M,,M,,*5A
$GPGSA,A,1,,,,,,,,,,,,,,,*1E
$GPGSV,3,1,11,05,28,196,00,08,25,064,00,09,18,265,00,15,53,306,00*71
$GPGSV,3,2,11,17,15,125,00,18,11,323,00,21,00,293,00,26,82,082,00*78
$GPGSV,3,3,11,27,39,273,00,28,56,065,37,33,33,214,00*49
$GPGLL,4424.8422,N,00852.8469,E,122303,V*3A
$GPVTG,,T,,M,,N,,K*4E
$GPRMC,122304,V,4424.8422,N,00852.8469,E,,,010611,000.9,E*6F
$GPGGA,122304,4424.8422,N,00852.8469,E,0,00,,,M,,M,,*5D
$GPGSA,A,1,,,,,,,,,,,,,,,*1E
$GPGSV,3,1,11,05,28,196,00,08,25,064,00,09,18,265,00,15,53,306,00*71
$GPGSV,3,2,11,17,15,125,00,18,11,323,00,21,00,293,00,26,82,082,00*78
$GPGSV,3,3,11,27,39,273,00,28,56,065,37,33,33,214,00*49
$GPGLL,4424.8422,N,00852.8469,E,122304,V*3D
$GPVTG,,T,,M,,N,,K*4E
$GPRMC,122305,V,4424.8422,N,00852.8469,E,,,010611,000.9,E*6E
$GPGGA,122305,4424.8422,N,00852.8469,E,0,00,,,M,,M,,*5C
$GPGSA,A,1,,,,,,,,,,,,,,,*1E
$GPGSV,3,1,11,05,28,196,00,08,25,064,00,09,18,265,00,15,53,306,00*71
$GPGSV,3,2,11,17,15,125,00,18,11,323,00,21,00,293,00,26,82,082,00*78
$GPGSV,3,3,11,27,39,273,00,28,56,065,36,33,33,214,00*48
$GPGLL,4424.8422,N,00852.8469,E,122305,V*3C
$GPVTG,,T,,M,,N,,K*4E
$GPRMC,122306,V,4424.8422,N,00852.8469,E,,,010611,000.9,E*6D
$GPGGA,122306,4424.8422,N,00852.8469,E,0,00,,,M,,M,,*5F
$GPGSA,A,1,,,,,,,,,,,,,,,*1E
$GPGSV,3,1,11,05,28,196,00,08,25,064,00,09,18,265,00,15,53,306,00*71
$GPGSV,3,2,11,17,15,125,00,18,11,323,00,21,00,293,00,26,82,082,00*78
$GPGSV,3,3,11,27,39,273,00,28,56,065,36,33,33,214,00*48
$GPGLL,4424.8422,N,00852.8469,E,122306,V*3F
$GPVTG,,T,,M,,N,,K*4E
$GPRMC,122307,V,4424.8422,N,00852.8469,E,,,010611,000.9,E*6C
$GPGGA,122307,4424.8422,N,00852.8469,E,0,00,,,M,,M,,*5E
$GPGSA,A,1,,,,,,,,,,,,,,,*1E
$GPGSV,3,1,11,05,28,196,00,08,25,064,40,09,18,265,00,15,53,306,00*75
$GPGSV,3,2,11,17,15,125,00,18,11,323,00,21,00,293,00,26,82,082,00*78
$GPGSV,3,3,11,27,39,273,00,28,56,065,37,33,33,214,00*49
$GPGLL,4424.8422,N,00852.8469,E,122307,V*3E
$GPVTG,,T,,M,,N,,K*4E
$GPRMC,122308,V,4424.8422,N,00852.8469,E,,,010611,000.9,E*63
$GPGGA,122308,4424.8422,N,00852.8469,E,0,00,,,M,,M,,*51
$GPGSA,A,1,,,,,,,,,,,,,,,*1E
$GPGSV,3,1,11,05,28,196,00,08,25,064,40,09,18,265,00,15,53,306,00*75
$GPGSV,3,2,11,17,15,125,00,18,11,323,00,21,00,293,00,26,82,082,00*78
$GPGSV,3,3,11,27,39,273,00,28,56,065,37,33,33,214,00*49
$GPGLL,4424.8422,N,00852.8469,E,122308,V*31
$GPVTG,,T,,M,,N,,K*4E
$GPRMC,122309,V,4424.8422,N,00852.8469,E,,,010611,000.9,E*62
$GPGGA,122309,4424.8422,N,00852.8469,E,0,00,,,M,,M,,*50
$GPGSA,A,1,,,,,,,,,,,,,,,*1E
$GPGSV,3,1,11,05,28,196,00,08,25,064,40,09,18,265,00,15,53,306,00*75
$GPGSV,3,2,11,17,15,125,00,18,11,323,00,21,00,293,00,26,82,082,00*78
$GPGSV,3,3,11,27,39,273,00,28,56,065,37,33,33,214,00*49
$GPGLL,4424.8422,N,00852.8469,E,122309,V*30
$GPVTG,,T,,M,,N,,K*4E
$GPRMC,122310,V,4424.8422,N,00852.8469,E,,,010611,000.9,E*6A
$GPGGA,122310,4424.8422,N,00852.8469,E,0,00,,,M,,M,,*58
$GPGSA,A,1,,,,,,,,,,,,,,,*1E
$GPGSV,3,1,11,05,28,196,00,08,25,064,39,09,18,265,00,15,53,306,00*7B
$GPGSV,3,2,11,17,15,125,00,18,11,323,00,21,00,293,00,26,82,082,00*78
$GPGSV,3,3,11,27,39,273,00,28,56,065,36,33,33,214,00*48
$GPGLL,4424.8422,N,00852.8469,E,122310,V*38
$GPVTG,,T,,M,,N,,K*4E
$GPRMC,122311,V,4424.8422,N,00852.8469,E,,,010611,000.9,E*6B
$GPGGA,122311,4424.8422,N,00852.8469,E,0,00,,,M,,M,,*59
$GPGSA,A,1,,,,,,,,,,,,,,,*1E
$GPGSV,3,1,11,05,28,196,00,08,25,064,40,09,18,265,00,15,53,306,00*75
$GPGSV,3,2,11,17,15,125,00,18,11,323,00,21,00,293,00,26,82,082,00*78
$GPGSV,3,3,11,27,39,273,00,28,56,065,37,33,33,214,00*49
$GPGLL,4424.8422,N,00852.8469,E,122311,V*39
$GPVTG,,T,,M,,N,,K*4E
$GPRMC,122312,V,4424.8422,N,00852.8469,E,,,010611,000.9,E*68
$GPGGA,122312,4424.8422,N,00852.8469,E,0,00,,,M,,M,,*5A
$GPGSA,A,1,,,,,,,,,,,,,,,*1E
$GPGSV,3,1,11,05,28,196,00,08,25,064,39,09,18,265,00,15,53,306,00*7B
$GPGSV,3,2,11,17,15,125,00,18,11,323,00,21,00,293,00,26,82,082,00*78
$GPGSV,3,3,11,27,39,273,00,28,56,065,37,33,33,214,00*49
$GPGLL,4424.8422,N,00852.8469,E,122312,V*3A
$GPVTG,,T,,M,,N,,K*4E
$GPRMC,122313,V,4424.8422,N,00852.8469,E,,,010611,000.9,E*69
$GPGGA,122313,4424.8422,N,00852.8469,E,0,00,,,M,,M,,*5B
$GPGSA,A,1,,,,,,,,,,,,,,,*1E
$GPGSV,3,1,11,05,28,196,00,08,25,064,40,09,18,265,00,15,53,306,00*75
$GPGSV,3,2,11,17,15,125,00,18,11,323,00,21,00,293,00,26,82,082,00*78
$GPGSV,3,3,11,27,39,273,00,28,56,065,00,33,33,214,00*4D
$GPGLL,4424.8422,N,00852.8469,E,122313,V*3B
$GPVTG,,T,,M,,N,,K*4E
$GPRMC,122314,V,4424.8422,N,00852.8469,E,,,010611,000.9,E*6E
$GPGGA,122314,4424.8422,N,00852.8469,E,0,00,,,M,,M,,*5C
$GPGSA,A,1,,,,,,,,,,,,,,,*1E
$GPGSV,3,1,11,05,28,196,00,08,25,064,40,09,18,265,00,15,53,306,00*75
$GPGSV,3,2,11,17,15,125,00,18,11,323,00,21,00,293,00,26,82,082,00*78
$GPGSV,3,3,11,27,39,273,00,28,56,065,00,33,33,214,00*4D
$GPGLL,4424.8422,N,00852.8469,E,122314,V*3C
$GPVTG,,T,,M,,N,,K*4E
$GPRMC,122315,V,4424.8422,N,00852.8469,E,,,010611,000.9,E*6F
$GPGGA,122315,4424.8422,N,00852.8469,E,0,00,,,M,,M,,*5D
$GPGSA,A,1,,,,,,,,,,,,,,,*1E
$GPGSV,3,1,11,05,28,196,00,08,25,064,39,09,18,265,00,15,53,306,00*7B
$GPGSV,3,2,11,17,15,125,00,18,11,323,00,21,00,293,00,26,82,082,00*78
$GPGSV,3,3,11,27,39,273,00,28,56,065,35,33,33,214,00*4B
$GPGLL,4424.8422,N,00852.8469,E,122315,V*3D
$GPVTG,,T,,M,,N,,K*4E
$GPRMC,122316,V,4424.8422,N,00852.8469,E,,,010611,000.9,E*6C
$GPGGA,122316,4424.8422,N,00852.8469,E,0,00,,,M,,M,,*5E
$GPGSA,A,1,,,,,,,,,,,,,,,*1E
$GPGSV,3,1,11,05,28,196,00,08,25,064,39,09,18,265,00,15,53,306,00*7B
$GPGSV,3,2,11,17,15,125,00,18,11,323,00,21,00,293,00,26,82,082,00*78
$GPGSV,3,3,11,27,39,273,00,28,56,065,34,33,33,214,00*4A
$GPGLL,4424.8422,N,00852.8469,E,122316,V*3E
$GPVTG,,T,,M,,N,,K*4E
$GPRMC,122317,V,4424.8422,N,00852.8469,E,,,010611,000.9,E*6D
$GPGGA,122317,4424.8422,N,00852.8469,E,0,00,,,M,,M,,*5F
$GPGSA,A,1,,,,,,,,,,,,,,,*1E
$GPGSV,3,1,11,05,28,196,00,08,25,064,39,09,18,265,00,15,53,306,00*7B
$GPGSV,3,2,11,17,15,125,00,18,11,323,00,21,00,293,00,26,82,082,00*78
$GPGSV,3,3,11,27,39,273,00,28,56,065,35,33,33,214,00*4B
$GPGLL,4424.8422,N,00852.8469,E,122317,V*3F
$GPVTG,,T,,M,,N,,K*4E
$GPRMC,122318,V,4424.8422,N,00852.8469,E,,,010611,000.9,E*62
$GPGGA,122318,4424.8422,N,00852.8469,E,0,00,,,M,,M,,*50
$GPGSA,A,1,,,,,,,,,,,,,,,*1E
$GPGSV,3,1,11,05,28,196,00,08,25,064,39,09,18,265,00,15,53,306,00*7B
$GPGSV,3,2,11,17,15,125,00,18,11,323,00,21,00,293,00,26,82,082,00*78
$GPGSV,3,3,11,27,39,273,00,28,56,065,35,33,33,214,00*4B
$GPGLL,4424.8422,N,00852.8469,E,122318,V*30
$GPVTG,,T,,M,,N,,K*4E
$GPRMC,122319,V,4424.8422,N,00852.8469,E,,,010611,000.9,E*63
$GPGGA,122319,4424.8422,N,00852.8469,E,0,00,,,M,,M,,*51
$GPGSA,A,1,,,,,,,,,,,,,,,*1E
$GPGSV,3,1,11,05,28,196,00,08,25,064,39,09,18,265,00,15,53,306,00*7B
$GPGSV,3,2,11,17,15,125,00,18,11,323,00,21,00,293,00,26,82,082,00*78
$GPGSV,3,3,11,27,39,273,00,28,56,065,35,33,33,214,00*4B
$GPGLL,4424.8422,N,00852.8469,E,122319,V*31
$GPVTG,,T,,M,,N,,K*4E
$GPRMC,122320,V,4424.8422,N,00852.8469,E,,,010611,000.9,E*69
$GPGGA,122320,4424.8422,N,00852.8469,E,0,00,,,M,,M,,*5B
$GPGSA,A,1,,,,,,,,,,,,,,,*1E
$GPGSV,3,1,11,05,28,196,00,08,25,064,39,09,18,265,00,15,53,306,00*7B
$GPGSV,3,2,11,17,15,125,00,18,11,323,00,21,00,293,00,26,82,082,00*78
$GPGSV,3,3,11,27,39,273,00,28,56,065,36,33,33,214,00*48
$GPGLL,4424.8422,N,00852.8469,E,122320,V*3B
$GPVTG,,T,,M,,N,,K*4E
$GPRMC,122321,V,4424.8422,N,00852.8469,E,,,010611,000.9,E*68
$GPGGA,122321,4424.8422,N,00852.8469,E,0,00,,,M,,M,,*5A
$GPGSA,A,1,,,,,,,,,,,,,,,*1E
$GPGSV,3,1,11,05,28,196,00,08,25,064,39,09,18,265,00,15,53,306,00*7B
$GPGSV,3,2,11,17,15,125,00,18,11,323,00,21,00,293,00,26,82,082,00*78
$GPGSV,3,3,11,27,39,273,00,28,56,065,36,33,33,214,00*48
$GPGLL,4424.8422,N,00852.8469,E,122321,V*3A
$GPVTG,,T,,M,,N,,K*4E
$GPRMC,122322,V,4424.8422,N,00852.8469,E,,,010611,000.9,E*6B
$GPGGA,122322,4424.8422,N,00852.8469,E,0,00,,,M,,M,,*59
$GPGSA,A,1,,,,,,,,,,,,,,,*1E
$GPGSV,3,1,11,05,27,195,00,08,25,064,39,09,18,265,00,15,53,306,00*77
$GPGSV,3,2,11,17,15,125,00,18,11,323,00,21,00,293,00,26,82,082,00*78
$GPGSV,3,3,11,27,39,273,00,28,56,065,37,33,33,214,00*49
$GPGLL,4424.8422,N,00852.8469,E,122322,V*39
$GPVTG,,T,,M,,N,,K*4E
$GPRMC,122323,V,4424.8422,N,00852.8469,E,,,010611,000.9,E*6A
$GPGGA,122323,4424.8422,N,00852.8469,E,0,00,,,M,,M,,*58
$GPGSA,A,1,,,,,,,,,,,,,,,*1E
$GPGSV,3,1,11,05,27,195,00,08,25,064,40,09,18,265,00,15,53,306,00*79
$GPGSV,3,2,11,17,15,125,00,18,11,323,00,21,00,293,00,26,82,082,00*78
$GPGSV,3,3,11,27,39,273,00,28,56,065,36,33,33,214,00*48
$GPGLL,4424.8422,N,00852.8469,E,122323,V*38
$GPVTG,,T,,M,,N,,K*4E
$GPRMC,122324,V,4424.8422,N,00852.8469,E,,,010611,000.9,E*6D
$GPGGA,122324,4424.8422,N,00852.8469,E,0,00,,,M,,M,,*5F
$GPGSA,A,1,,,,,,,,,,,,,,,*1E
$GPGSV,3,1,11,05,27,195,00,08,25,064,41,09,18,265,00,15,53,306,00*78
$GPGSV,3,2,11,17,15,125,00,18,11,323,00,21,00,293,00,26,82,082,00*78
$GPGSV,3,3,11,27,39,273,00,28,56,065,37,33,33,214,00*49
$GPGLL,4424.8422,N,00852.8469,E,122324,V*3F
$GPVTG,,T,,M,,N,,K*4E
$GPRMC,122325,V,4424.8422,N,00852.8469,E,,,010611,000.9,E*6C
$GPGGA,122325,4424.8422,N,00852.8469,E,0,00,,,M,,M,,*5E
$GPGSA,A,1,,,,,,,,,,,,,,,*1E
$GPGSV,3,1,11,05,27,195,00,08,25,064,41,09,18,265,00,15,53,306,00*78
$GPGSV,3,2,11,17,15,125,00,18,11,323,00,21,00,293,00,26,82,082,00*78
$GPGSV,3,3,11,27,39,273,00,28,56,065,38,33,33,214,00*46
$GPGLL,4424.8422,N,00852.8469,E,122325,V*3E
$GPVTG,,T,,M,,N,,K*4E
$GPRMC,122326,V,4424.8422,N,00852.8469,E,,,010611,000.9,E*6F
$GPGGA,122326,4424.8422,N,00852.8469,E,0,00,,,M,,M,,*5D
$GPGSA,A,1,,,,,,,,,,,,,,,*1E
$GPGSV,3,1,11,05,27,195,00,08,25,064,41,09,18,265,00,15,53,306,00*78
$GPGSV,3,2,11,17,15,125,00,18,11,323,00,21,00,293,00,26,82,082,00*78
$GPGSV,3,3,11,27,39,273,00,28,56,065,38,33,33,214,00*46
$GPGLL,4424.8422,N,00852.8469,E,122326,V*3D
$GPVTG,,T,,M,,N,,K*4E
$GPRMC,122327,V,4424.8422,N,00852.8469,E,,,010611,000.9,E*6E
$GPGGA,122327,4424.8422,N,00852.8469,E,0,00,,,M,,M,,*5C
$GPGSA,A,1,,,,,,,,,,,,,,,*1E
$GPGSV,3,1,11,02,00,189,00,08,25,064,41,09,18,265,00,15,53,306,00*77
$GPGSV,3,2,11,17,15,125,00,18,11,323,00,21,00,293,00,26,82,082,00*78
$GPGSV,3,3,11,27,39,273,00,28,56,065,39,33,33,214,00*47
$GPGLL,4424.8422,N,00852.8469,E,122327,V*3C
$GPVTG,,T,,M,,N,,K*4E
$GPRMC,122328,V,4424.8422,N,00852.8469,E,,,010611,000.9,E*61
$GPGGA,122328,4424.8422,N,00852.8469,E,0,00,,,M,,M,,*53
$GPGSA,A,1,,,,,,,,,,,,,,,*1E
$GPGSV,3,1,11,02,00,189,00,08,25,064,42,09,18,265,00,15,53,306,00*74
$GPGSV,3,2,11,17,15,125,00,18,11,323,00,21,00,293,00,26,82,082,00*78
$GPGSV,3,3,11,27,39,273,00,28,56,065,39,33,33,214,00*47
$GPGLL,4424.8422,N,00852.8469,E,122328,V*33
$GPVTG,,T,,M,,N,,K*4E
$GPRMC,122329,V,4424.8422,N,00852.8469,E,,,010611,000.9,E*60
$GPGGA,122329,4424.8422,N,00852.8469,E,0,00,,,M,,M,,*52
$GPGSA,A,1,,,,,,,,,,,,,,,*1E
$GPGSV,3,1,11,02,00,189,00,08,25,064,43,09,18,265,00,15,53,306,00*75
$GPGSV,3,2,11,17,15,125,00,18,11,323,00,21,00,293,00,26,82,082,00*78
$GPGSV,3,3,11,27,39,273,00,28,56,065,39,33,33,214,00*47
$GPGLL,4424.8422,N,00852.8469,E,122329,V*32
$GPVTG,,T,,M,,N,,K*4E
$GPRMC,122330,V,4424.8422,N,00852.8469,E,,,010611,000.9,E*68
$GPGGA,122330,4424.8422,N,00852.8469,E,0,00,,,M,,M,,*5A
$GPGSA,A,1,,,,,,,,,,,,,,,*1E
$GPGSV,3,1,11,02,00,189,00,08,25,064,42,09,18,265,00,15,53,306,00*74
$GPGSV,3,2,11,17,15,125,00,18,11,323,00,21,00,293,00,26,82,082,00*78
$GPGSV,3,3,11,27,39,273,00,28,56,065,39,33,33,214,00*47
$GPGLL,4424.8422,N,00852.8469,E,122330,V*3A
$GPVTG,,T,,M,,N,,K*4E
$GPRMC,122331,V,4424.8422,N,00852.8469,E,,,010611,000.9,E*69
$GPGGA,122331,4424.8422,N,00852.8469,E,0,00,,,M,,M,,*5B
$GPGSA,A,1,,,,,,,,,,,,,,,*1E
$GPGSV,3,1,11,02,00,189,00,08,25,064,43,09,18,265,00,15,53,306,00*75
$GPGSV,3,2,11,17,15,125,00,18,11,323,00,21,00,293,00,26,82,082,00*78
$GPGSV,3,3,11,27,39,273,00,28,56,065,39,33,33,214,00*47
$GPGLL,4424.8422,N,00852.8469,E,122331,V*3B
$GPVTG,,T,,M,,N,,K*4E
$GPRMC,122332,V,4424.8422,N,00852.8469,E,,,010611,000.9,E*6A
$GPGGA,122332,4424.8422,N,00852.8469,E,0,00,,,M,,M,,*58
$GPGSA,A,1,,,,,,,,,,,,,,,*1E
$GPGSV,3,1,11,02,00,189,00,08,25,064,43,09,18,265,00,15,53,306,00*75
$GPGSV,3,2,11,17,15,125,00,18,11,323,00,21,00,293,00,26,82,082,00*78
$GPGSV,3,3,11,27,39,273,00,28,56,065,39,33,33,214,00*47
$GPGLL,4424.8422,N,00852.8469,E,122332,V*38
$GPVTG,,T,,M,,N,,K*4E
$GPRMC,122333,V,4424.8422,N,00852.8469,E,,,010611,000.9,E*6B
$GPGGA,122333,4424.8422,N,00852.8469,E,0,00,,,M,,M,,*59
$GPGSA,A,1,,,,,,,,,,,,,,,*1E
$GPGSV,3,1,11,02,00,189,00,08,24,065,43,09,18,265,00,15,53,306,00*75
$GPGSV,3,2,11,17,15,125,00,18,11,323,00,21,00,293,00,26,82,082,00*78
$GPGSV,3,3,11,27,39,273,00,28,56,065,39,33,33,214,00*47
$GPGLL,4424.8422,N,00852.8469,E,122333,V*39
$GPVTG,,T,,M,,N,,K*4E
$GPRMC,122334,V,4424.8422,N,00852.8469,E,,,010611,000.9,E*6C
$GPGGA,122334,4424.8422,N,00852.8469,E,0,00,,,M,,M,,*5E
$GPGSA,A,1,,,,,,,,,,,,,,,*1E
$GPGSV,3,1,11,02,00,189,00,08,24,065,43,09,18,265,00,15,53,306,00*75
$GPGSV,3,2,11,17,15,125,00,18,11,323,00,21,00,293,00,26,82,082,00*78
$GPGSV,3,3,11,27,39,273,00,28,56,065,39,33,33,214,00*47
$GPGLL,4424.8422,N,00852.8469,E,122334,V*3E
$GPVTG,,T,,M,,N,,K*4E
$GPRMC,122335,V,4424.8422,N,00852.8469,E,,,010611,000.9,E*6D
$GPGGA,122335,4424.8422,N,00852.8469,E,0,00,,,M,,M,,*5F
$GPGSA,A,1,,,,,,,,,,,,,,,*1E
$GPGSV,3,1,11,02,00,189,00,08,24,065,43,09,18,265,00,15,53,306,00*75
$GPGSV,3,2,11,17,15,125,00,18,11,323,00,21,00,293,00,26,82,082,00*78
$GPGSV,3,3,11,27,39,273,00,28,56,065,39,33,33,214,00*47
$GPGLL,4424.8422,N,00852.8469,E,122335,V*3F
$GPVTG,,T,,M,,N,,K*4E
$GPRMC,122336,V,4424.8422,N,00852.8469,E,,,010611,000.9,E*6E
$GPGGA,122336,4424.8422,N,00852.8469,E,0,00,,,M,,M,,*5C
$GPGSA,A,1,,,,,,,,,,,,,,,*1E
$GPGSV,3,1,11,02,00,189,00,08,24,065,43,09,18,265,00,15,53,306,00*75
$GPGSV,3,2,11,17,15,125,00,18,11,323,00,21,00,293,00,26,82,082,00*78
$GPGSV,3,3,11,27,39,273,00,28,56,065,39,33,33,214,00*47
$GPGLL,4424.8422,N,00852.8469,E,122336,V*3C
$GPVTG,,T,,M,,N,,K*4E
$GPRMC,122337,V,4424.8422,N,00852.8469,E,,,010611,000.9,E*6F
$GPGGA,122337,4424.8422,N,00852.8469,E,0,00,,,M,,M,,*5D
$GPGSA,A,1,,,,,,,,,,,,,,,*1E
$GPGSV,3,1,11,02,00,189,00,08,24,065,43,09,19,266,00,15,53,306,00*77
$GPGSV,3,2,11,17,15,125,00,18,11,323,00,21,00,293,00,26,82,082,00*78
$GPGSV,3,3,11,27,39,273,00,28,56,065,39,33,33,214,00*47
$GPGLL,4424.8422,N,00852.8469,E,122337,V*3D
$GPVTG,,T,,M,,N,,K*4E
$GPRMC,122338,V,4424.8422,N,00852.8469,E,,,010611,000.9,E*60
$GPGGA,122338,4424.8422,N,00852.8469,E,0,00,,,M,,M,,*52
$GPGSA,A,1,,,,,,,,,,,,,,,*1E
$GPGSV,3,1,11,02,00,189,00,08,24,065,43,09,19,266,00,15,53,306,00*77
$GPGSV,3,2,11,17,15,125,00,18,11,323,00,21,00,293,00,26,82,082,00*78
$GPGSV,3,3,11,27,39,273,00,28,56,065,39,33,33,214,00*47
$GPGLL,4424.8422,N,00852.8469,E,122338,V*32
$GPVTG,,T,,M,,N,,K*4E
$GPRMC,122339,V,4424.8422,N,00852.8469,E,,,010611,000.9,E*61
$GPGGA,122339,4424.8422,N,00852.8469,E,0,00,,,M,,M,,*53
$GPGSA,A,1,,,,,,,,,,,,,,,*1E
$GPGSV,3,1,11,02,00,189,00,08,24,065,43,09,19,266,00,15,53,306,00*77
$GPGSV,3,2,11,17,15,125,00,18,11,323,00,21,00,293,00,26,82,082,00*78
$GPGSV,3,3,11,27,39,273,00,28,56,065,38,33,33,214,00*46
$GPGLL,4424.8422,N,00852.8469,E,122339,V*33
$GPVTG,,T,,M,,N,,K*4E
$GPRMC,122340,V,4424.8422,N,00852.8469,E,,,010611,000.9,E*6F
$GPGGA,122340,4424.8422,N,00852.8469,E,0,00,,,M,,M,,*5D
$GPGSA,A,1,,,,,,,,,,,,,,,*1E
$GPGSV,3,1,11,02,00,189,00,08,24,065,43,09,19,266,00,15,53,306,00*77
$GPGSV,3,2,11,17,15,125,00,18,11,323,00,21,00,293,00,26,82,086,00*7C
$GPGSV,3,3,11,27,39,273,00,28,56,065,39,33,33,214,00*47
$GPGLL,4424.8422,N,00852.8469,E,122340,V*3D
$GPVTG,,T,,M,,N,,K*4E
$GPRMC,122341,V,4424.8422,N,00852.8469,E,,,010611,000.9,E*6E
$GPGGA,122341,4424.8422,N,00852.8469,E,0,00,,,M,,M,,*5C
$GPGSA,A,1,,,,,,,,,,,,,,,*1E
$GPGSV,3,1,11,02,00,189,00,08,24,065,43,09,19,266,00,15,53,306,00*77
$GPGSV,3,2,11,17,15,125,00,18,11,323,00,21,00,293,00,26,82,086,00*7C
$GPGSV,3,3,11,27,39,273,00,28,56,065,39,33,33,214,00*47
$GPGLL,4424.8422,N,00852.8469,E,122341,V*3C
$GPVTG,,T,,M,,N,,K*4E
$GPRMC,122342,V,4424.8422,N,00852.8469,E,,,010611,000.9,E*6D
$GPGGA,122342,4424.8422,N,00852.8469,E,0,00,,,M,,M,,*5F
$GPGSA,A,1,,,,,,,,,,,,,,,*1E
$GPGSV,3,1,11,02,00,189,00,08,24,065,43,09,19,266,00,15,53,306,00*77
$GPGSV,3,2,11,17,15,125,00,18,11,323,00,21,00,293,00,26,82,086,00*7C
$GPGSV,3,3,11,27,39,273,00,28,56,065,39,33,33,214,00*47
$GPGLL,4424.8422,N,00852.8469,E,122342,V*3F
$GPVTG,,T,,M,,N,,K*4E
$GPRMC,122343,V,4424.8422,N,00852.8469,E,,,010611,000.9,E*6C
$GPGGA,122343,4424.8422,N,00852.8469,E,0,00,,,M,,M,,*5E
$GPGSA,A,1,,,,,,,,,,,,,,,*1E
$GPGSV,3,1,11,02,00,189,00,08,24,065,42,09,19,266,00,15,53,306,00*76
$GPGSV,3,2,11,17,15,125,00,18,11,323,00,21,00,293,00,26,82,086,00*7C
$GPGSV,3,3,11,27,39,273,00,28,56,065,40,33,33,214,00*49
$GPGLL,4424.8422,N,00852.8469,E,122343,V*3E
$GPVTG,,T,,M,,N,,K*4E
$GPRMC,122344,V,4424.8422,N,00852.8469,E,,,010611,000.9,E*6B
$GPGGA,122344,4424.8422,N,00852.8469,E,0,00,,,M,,M,,*59
$GPGSA,A,1,,,,,,,,,,,,,,,*1E
$GPGSV,3,1,11,02,00,189,00,08,24,065,42,09,19,266,00,15,53,306,00*76
$GPGSV,3,2,11,17,15,125,00,18,11,323,00,21,00,293,00,26,82,086,00*7C
$GPGSV,3,3,11,27,39,273,00,28,56,065,40,33,33,214,00*49
$GPGLL,4424.8422,N,00852.8469,E,122344,V*39
$GPVTG,,T,,M,,N,,K*4E
$GPRMC,122345,V,4424.8422,N,00852.8469,E,,,010611,000.9,E*6A
$GPGGA,122345,4424.8422,N,00852.8469,E,0,00,,,M,,M,,*58
$GPGSA,A,1,,,,,,,,,,,,,,,*1E
$GPGSV,3,1,11,02,00,189,00,08,24,065,42,09,19,266,00,15,53,306,00*76
$GPGSV,3,2,11,17,15,125,00,18,11,323,00,21,00,293,00,26,82,086,00*7C
$GPGSV,3,3,11,27,39,273,00,28,56,065,40,33,33,214,00*49
$GPGLL,4424.8422,N,00852.8469,E,122345,V*38
$GPVTG,,T,,M,,N,,K*4E
$GPRMC,122346,V,4424.8422,N,00852.8469,E,,,010611,000.9,E*69
$GPGGA,122346,4424.8422,N,00852.8469,E,0,00,,,M,,M,,*5B
$GPGSA,A,1,,,,,,,,,,,,,,,*1E
$GPGSV,3,1,11,02,00,189,00,08,24,065,42,09,19,266,00,15,53,306,00*76
$GPGSV,3,2,11,17,15,125,00,18,11,323,00,21,00,293,00,26,82,086,00*7C
$GPGSV,3,3,11,27,39,273,00,28,56,065,40,33,33,214,00*49
$GPGLL,4424.8422,N,00852.8469,E,122346,V*3B
$GPVTG,,T,,M,,N,,K*4E
$GPRMC,122347,V,4424.8422,N,00852.8469,E,,,010611,000.9,E*68
$GPGGA,122347,4424.8422,N,00852.8469,E,0,00,,,M,,M,,*5A
$GPGSA,A,1,,,,,,,,,,,,,,,*1E
$GPGSV,3,1,11,02,00,189,00,08,24,065,42,09,19,266,00,15,53,306,00*76
$GPGSV,3,2,11,17,15,125,00,18,11,323,00,21,00,293,00,26,82,086,00*7C
$GPGSV,3,3,11,27,39,273,00,28,56,065,41,33,33,214,00*48
$GPGLL,4424.8422,N,00852.8469,E,122347,V*3A
$GPVTG,,T,,M,,N,,K*4E
$GPRMC,122348,V,4424.8422,N,00852.8469,E,,,010611,000.9,E*67
$GPGGA,122348,4424.8422,N,00852.8469,E,0,00,,,M,,M,,*55
$GPGSA,A,1,,,,,,,,,,,,,,,*1E
$GPGSV,3,1,11,02,00,189,00,08,24,065,42,09,19,266,00,15,53,306,00*76
$GPGSV,3,2,11,17,15,125,00,18,11,323,00,21,00,293,00,26,82,086,00*7C
$GPGSV,3,3,11,27,39,273,00,28,56,065,41,33,33,214,00*48
$GPGLL,4424.8422,N,00852.8469,E,122348,V*35
$GPVTG,,T,,M,,N,,K*4E
$GPRMC,122349,V,4424.8422,N,00852.8469,E,,,010611,000.9,E*66
$GPGGA,122349,4424.8422,N,00852.8469,E,0,00,,,M,,M,,*54
$GPGSA,A,1,,,,,,,,,,,,,,,*1E
$GPGSV,3,1,11,02,00,189,00,08,24,065,42,09,19,266,00,15,53,306,00*76
$GPGSV,3,2,11,17,15,125,00,18,11,323,00,21,00,293,00,26,82,086,00*7C
$GPGSV,3,3,11,27,39,273,00,28,56,065,41,33,33,214,00*48
$GPGLL,4424.8422,N,00852.8469,E,122349,V*34
$GPVTG,,T,,M,,N,,K*4E
$GPRMC,122350,V,4424.8422,N,00852.8469,E,,,010611,000.9,E*6E
$GPGGA,122350,4424.8422,N,00852.8469,E,0,00,,,M,,M,,*5C
$GPGSA,A,1,,,,,,,,,,,,,,,*1E
$GPGSV,3,1,11,02,00,189,00,08,24,065,43,09,19,266,00,15,53,306,00*77
$GPGSV,3,2,11,17,15,125,00,18,11,323,00,21,00,293,00,26,82,086,00*7C
$GPGSV,3,3,11,27,39,273,00,28,56,065,40,33,33,214,00*49
$GPGLL,4424.8422,N,00852.8469,E,122350,V*3C
$GPVTG,,T,,M,,N,,K*4E
$GPRMC,122351,V,4424.8422,N,00852.8469,E,,,010611,000.9,E*6F
$GPGGA,122351,4424.8422,N,00852.8469,E,0,00,,,M,,M,,*5D
$GPGSA,A,1,,,,,,,,,,,,,,,*1E
$GPGSV,3,1,11,02,00,189,00,08,24,065,42,09,19,266,00,15,53,306,00*76
$GPGSV,3,2,11,17,15,125,00,18,11,323,00,21,00,293,00,26,82,086,00*7C
$GPGSV,3,3,11,27,39,273,00,28,56,065,41,33,33,214,00*48
$GPGLL,4424.8422,N,00852.8469,E,122351,V*3D
$GPVTG,,T,,M,,N,,K*4E
$GPRMC,122352,V,4424.8422,N,00852.8469,E,,,010611,000.9,E*6C
$GPGGA,122352,4424.8422,N,00852.8469,E,0,00,,,M,,M,,*5E
$GPGSA,A,1,,,,,,,,,,,,,,,*1E
$GPGSV,3,1,11,02,00,189,00,08,24,065,42,09,19,266,00,15,53,306,00*76
$GPGSV,3,2,11,17,15,125,00,18,11,323,00,21,00,293,00,26,82,086,00*7C
$GPGSV,3,3,11,27,39,273,00,28,56,065,41,33,33,214,00*48
$GPGLL,4424.8422,N,00852.8469,E,122352,V*3E
$GPVTG,,T,,M,,N,,K*4E
$GPRMC,122353,V,4424.8422,N,00852.8469,E,,,010611,000.9,E*6D
$GPGGA,122353,4424.8422,N,00852.8469,E,0,00,,,M,,M,,*5F
$GPGSA,A,1,,,,,,,,,,,,,,,*1E
$GPGSV,3,1,11,02,00,189,00,08,24,065,43,09,19,266,00,15,53,306,00*77
$GPGSV,3,2,11,17,15,125,00,18,11,323,00,21,00,293,00,26,82,086,00*7C
$GPGSV,3,3,11,27,39,273,00,28,56,065,41,33,33,214,00*48
$GPGLL,4424.8422,N,00852.8469,E,122353,V*3F
$GPVTG,,T,,M,,N,,K*4E
$GPRMC,122354,V,4424.8422,N,00852.8469,E,,,010611,000.9,E*6A
$GPGGA,122354,4424.8422,N,00852.8469,E,0,00,,,M,,M,,*58
$GPGSA,A,1,,,,,,,,,,,,,,,*1E
$GPGSV,3,1,11,02,00,189,00,08,24,065,43,09,19,266,00,15,53,306,00*77
$GPGSV,3,2,11,17,15,125,00,18,11,323,00,21,00,293,00,26,82,086,00*7C
$GPGSV,3,3,11,27,39,273,00,28,56,065,41,33,33,214,00*48
$GPGLL,4424.8422,N,00852.8469,E,122354,V*38
$GPVTG,,T,,M,,N,,K*4E
$GPRMC,122355,V,4424.8422,N,00852.8469,E,,,010611,000.9,E*6B
$GPGGA,122355,4424.8422,N,00852.8469,E,0,00,,,M,,M,,*59
$GPGSA,A,1,,,,,,,,,,,,,,,*1E
$GPGSV,3,1,11,02,00,189,00,08,24,065,42,09,19,266,00,15,53,306,00*76
$GPGSV,3,2,11,17,15,125,00,18,11,323,00,21,00,293,00,26,82,086,00*7C
$GPGSV,3,3,11,27,39,273,00,28,56,065,41,33,33,214,00*48
$GPGLL,4424.8422,N,00852.8469,E,122355,V*39
$GPVTG,,T,,M,,N,,K*4E
$GPRMC,122356,V,4424.8422,N,00852.8469,E,,,010611,000.9,E*68
$GPGGA,122356,4424.8422,N,00852.8469,E,0,00,,,M,,M,,*5A
$GPGSA,A,1,,,,,,,,,,,,,,,*1E
$GPGSV,3,1,11,02,00,189,00,08,24,065,42,09,19,266,00,15,53,306,00*76
$GPGSV,3,2,11,17,15,125,00,18,11,323,00,21,00,293,00,26,82,086,00*7C
$GPGSV,3,3,11,27,39,273,00,28,56,065,41,33,33,214,00*48
$GPGLL,4424.8422,N,00852.8469,E,122356,V*3A
$GPVTG,,T,,M,,N,,K*4E
$GPRMC,122357,V,4424.8422,N,00852.8469,E,,,010611,000.9,E*69
$GPGGA,122357,4424.8422,N,00852.8469,E,0,00,,,M,,M,,*5B
$GPGSA,A,1,,,,,,,,,,,,,,,*1E
$GPGSV,3,1,11,02,00,189,00,08,24,065,42,09,19,266,00,15,53,306,00*76
$GPGSV,3,2,11,17,15,125,00,18,11,323,00,21,00,293,00,26,82,086,00*7C
$GPGSV,3,3,11,27,39,273,00,28,56,065,41,33,33,214,00*48
$GPGLL,4424.8422,N,00852.8469,E,122357,V*3B
$GPVTG,,T,,M,,N,,K*4E
$GPRMC,122358,V,4424.8422,N,00852.8469,E,,,010611,000.9,E*66
$GPGGA,122358,4424.8422,N,00852.8469,E,0,00,,,M,,M,,*54
$GPGSA,A,1,,,,,,,,,,,,,,,*1E
$GPGSV,3,1,11,02,00,189,00,08,24,065,42,09,19,266,00,15,53,306,00*76
$GPGSV,3,2,11,17,15,125,00,18,11,323,00,21,00,293,00,26,82,086,00*7C
$GPGSV,3,3,11,27,39,273,00,28,56,065,42,33,33,214,00*4B
$GPGLL,4424.8422,N,00852.8469,E,122358,V*34
$GPVTG,,T,,M,,N,,K*4E
$GPRMC,122359,V,4424.8422,N,00852.8469,E,,,010611,000.9,E*67
$GPGGA,122359,4424.8422,N,00852.8469,E,0,00,,,M,,M,,*55
$GPGSA,A,1,,,,,,,,,,,,,,,*1E
$GPGSV,3,1,11,02,00,189,00,08,24,065,42,09,19,266,00,15,53,306,00*76
$GPGSV,3,2,11,17,15,125,00,18,11,323,00,21,00,293,00,26,82,086,00*7C
$GPGSV,3,3,11,27,39,273,00,28,56,065,42,33,33,214,00*4B
$GPGLL,4424.8422,N,00852.8469,E,122359,V*35
$GPVTG,,T,,M,,N,,K*4E
$GPRMC,122400,V,4424.8422,N,00852.8469,E,,,010611,000.9,E*6C
$GPGGA,122400,4424.8422,N,00852.8469,E,0,00,,,M,,M,,*5E
$GPGSA,A,1,,,,,,,,,,,,,,,*1E
$GPGSV,3,1,11,02,00,189,00,08,24,065,42,09,19,266,00,15,54,306,00*71
$GPGSV,3,2,11,17,15,125,00,18,11,323,00,21,00,293,00,26,82,086,00*7C
$GPGSV,3,3,11,27,39,273,00,28,56,065,42,33,33,214,00*4B
$GPGLL,4424.8422,N,00852.8469,E,122400,V*3E
$GPVTG,,T,,M,,N,,K*4E
$GPRMC,122401,V,4424.8422,N,00852.8469,E,,,010611,000.9,E*6D
$GPGGA,122401,4424.8422,N,00852.8469,E,0,00,,,M,,M,,*5F
$GPGSA,A,1,,,,,,,,,,,,,,,*1E
$GPGSV,3,1,11,02,00,189,00,08,24,065,42,09,19,266,00,15,54,306,00*71
$GPGSV,3,2,11,17,15,125,00,18,11,323,00,21,00,293,00,26,82,086,00*7C
$GPGSV,3,3,11,27,39,273,00,28,56,065,42,33,33,214,00*4B
$GPGLL,4424.8422,N,00852.8469,E,122401,V*3F
$GPVTG,,T,,M,,N,,K*4E
$GPRMC,122402,V,4424.8422,N,00852.8469,E,,,010611,000.9,E*6E
$GPGGA,122402,4424.8422,N,00852.8469,E,0,00,,,M,,M,,*5C
$GPGSA,A,1,,,,,,,,,,,,,,,*1E
$GPGSV,3,1,11,02,00,189,00,08,24,065,42,09,19,266,00,15,54,306,00*71
$GPGSV,3,2,11,17,15,125,00,18,11,323,00,21,00,293,00,26,82,086,00*7C
$GPGSV,3,3,11,27,39,273,00,28,56,065,42,33,33,214,00*4B
$GPGLL,4424.8422,N,00852.8469,E,122402,V*3C
$GPVTG,,T,,M,,N,,K*4E
$GPRMC,122403,V,4424.8422,N,00852.8469,E,,,010611,000.9,E*6F
$GPGGA,122403,4424.8422,N,00852.8469,E,0,00,,,M,,M,,*5D
$GPGSA,A,1,,,,,,,,,,,,,,,*1E
$GPGSV,3,1,11,02,00,189,00,08,24,065,42,09,19,266,00,15,54,306,00*71
$GPGSV,3,2,11,17,15,125,00,18,11,323,00,21,00,293,00,26,82,086,00*7C
$GPGSV,3,3,11,27,39,273,00,28,56,065,42,33,33,214,00*4B
$GPGLL,4424.8422,N,00852.8469,E,122403,V*3D
$GPVTG,,T,,M,,N,,K*4E
$GPRMC,122404,V,4424.8422,N,00852.8469,E,,,010611,000.9,E*68
$GPGGA,122404,4424.8422,N,00852.8469,E,0,00,,,M,,M,,*5A
$GPGSA,A,1,,,,,,,,,,,,,,,*1E
$GPGSV,3,1,11,02,00,189,00,08,24,065,42,09,19,266,00,15,54,306,00*71
$GPGSV,3,2,11,17,15,125,00,18,11,323,00,21,00,293,00,26,82,086,00*7C
$GPGSV,3,3,11,27,39,273,00,28,56,065,42,33,33,214,00*4B
$GPGLL,4424.8422,N,00852.8469,E,122404,V*3A
$GPVTG,,T,,M,,N,,K*4E
$GPRMC,122405,V,4424.8422,N,00852.8469,E,,,010611,000.9,E*69
$GPGGA,122405,4424.8422,N,00852.8469,E,0,00,,,M,,M,,*5B
$GPGSA,A,1,,,,,,,,,,,,,,,*1E
$GPGSV,3,1,11,02,00,189,00,08,24,065,42,09,19,266,00,15,54,306,00*71
$GPGSV,3,2,11,17,15,125,00,18,11,323,00,21,00,293,00,26,82,086,00*7C
$GPGSV,3,3,11,27,39,273,00,28,56,065,42,33,33,214,00*4B
$GPGLL,4424.8422,N,00852.8469,E,122405,V*3B
$GPVTG,,T,,M,,N,,K*4E
$GPRMC,122406,V,4424.8422,N,00852.8469,E,,,010611,000.9,E*6A
$GPGGA,122406,4424.8422,N,00852.8469,E,0,00,,,M,,M,,*58
$GPGSA,A,1,,,,,,,,,,,,,,,*1E
$GPGSV,3,1,11,02,00,189,00,08,24,065,42,09,19,266,00,15,54,306,00*71
$GPGSV,3,2,11,17,15,125,00,18,11,323,00,21,00,293,00,26,82,086,00*7C
$GPGSV,3,3,11,27,39,273,00,28,56,065,42,33,33,214,00*4B
$GPGLL,4424.8422,N,00852.8469,E,122406,V*38
$GPVTG,,T,,M,,N,,K*4E
$GPRMC,122407,V,4424.8422,N,00852.8469,E,,,010611,000.9,E*6B
$GPGGA,122407,4424.8422,N,00852.8469,E,0,00,,,M,,M,,*59
$GPGSA,A,1,,,,,,,,,,,,,,,*1E
$GPGSV,3,1,11,02,00,189,00,08,24,065,42,09,19,266,00,15,54,306,00*71
$GPGSV,3,2,11,17,16,125,00,18,11,323,00,21,00,293,00,26,82,086,00*7F
$GPGSV,3,3,11,27,39,273,00,28,56,065,42,33,33,214,00*4B
$GPGLL,4424.8422,N,00852.8469,E,122407,V*39
$GPVTG,,T,,M,,N,,K*4E
$GPRMC,122408,V,4424.8422,N,00852.8469,E,,,010611,000.9,E*64
$GPGGA,122408,4424.8422,N,00852.8469,E,0,00,,,M,,M,,*56
$GPGSA,A,1,,,,,,,,,,,,,,,*1E
$GPGSV,3,1,11,02,00,189,00,08,24,065,42,09,19,266,00,15,54,306,00*71
$GPGSV,3,2,11,17,16,125,00,18,11,323,00,21,00,293,00,26,82,086,00*7F
$GPGSV,3,3,11,27,39,273,00,28,56,065,42,33,33,214,00*4B
$GPGLL,4424.8422,N,00852.8469,E,122408,V*36
$GPVTG,,T,,M,,N,,K*4E
$GPRMC,122409,V,4424.8422,N,00852.8469,E,,,010611,000.9,E*65
$GPGGA,122409,4424.8422,N,00852.8469,E,0,00,,,M,,M,,*57
$GPGSA,A,1,,,,,,,,,,,,,,,*1E
$GPGSV,3,1,11,02,00,189,00,08,24,065,42,09,19,266,00,15,54,306,00*71
$GPGSV,3,2,11,17,16,125,00,18,11,323,00,21,00,293,00,26,82,086,00*7F
$GPGSV,3,3,11,27,39,273,00,28,56,065,42,33,33,214,00*4B
$GPGLL,4424.8422,N,00852.8469,E,122409,V*37
$GPVTG,,T,,M,,N,,K*4E
$GPRMC,122410,V,4424.8422,N,00852.8469,E,,,010611,000.9,E*6D
$GPGGA,122410,4424.8422,N,00852.8469,E,0,00,,,M,,M,,*5F
$GPGSA,A,1,,,,,,,,,,,,,,,*1E
$GPGSV,3,1,11,02,00,189,00,08,24,065,41,09,19,266,00,15,54,306,00*72
$GPGSV,3,2,11,17,16,125,00,18,11,323,00,21,00,293,00,26,82,086,00*7F
$GPGSV,3,3,11,27,39,274,00,28,56,065,42,33,33,214,00*4C
$GPGLL,4424.8422,N,00852.8469,E,122410,V*3F
$GPVTG,,T,,M,,N,,K*4E
$GPRMC,122411,V,4424.8422,N,00852.8469,E,,,010611,000.9,E*6C
$GPGGA,122411,4424.8422,N,00852.8469,E,0,00,,,M,,M,,*5E
$GPGSA,A,1,,,,,,,,,,,,,,,*1E
$GPGSV,3,1,11,02,00,189,00,08,24,065,41,09,19,266,00,15,54,306,00*72
$GPGSV,3,2,11,17,16,125,00,18,12,322,00,21,00,293,00,26,82,086,00*7D
$GPGSV,3,3,11,27,39,274,00,28,56,065,42,33,33,214,00*4C
$GPGLL,4424.8422,N,00852.8469,E,122411,V*3E
$GPVTG,,T,,M,,N,,K*4E
$GPRMC,122412,V,4424.8422,N,00852.8469,E,,,010611,000.9,E*6F
$GPGGA,122412,4424.8422,N,00852.8469,E,0,00,,,M,,M,,*5D
$GPGSA,A,1,,,,,,,,,,,,,,,*1E
$GPGSV,3,1,11,02,00,189,00,08,24,065,41,09,19,266,00,15,54,306,00*72
$GPGSV,3,2,11,17,16,125,00,18,12,322,00,21,00,293,00,26,82,086,00*7D
$GPGSV,3,3,11,27,39,274,00,28,56,065,42,33,33,214,00*4C
$GPGLL,4424.8422,N,00852.8469,E,122412,V*3D
$GPVTG,,T,,M,,N,,K*4E
$GPRMC,122413,V,4424.8422,N,00852.8469,E,,,010611,000.9,E*6E
$GPGGA,122413,4424.8422,N,00852.8469,E,0,00,,,M,,M,,*5C
$GPGSA,A,1,,,,,,,,,,,,,,,*1E
$GPGSV,3,1,11,02,00,189,00,08,24,065,41,09,19,266,00,15,54,306,00*72
$GPGSV,3,2,11,17,16,125,00,18,12,322,00,21,00,293,00,26,82,086,00*7D
$GPGSV,3,3,11,27,39,274,00,28,56,065,43,33,33,214,00*4D
$GPGLL,4424.8422,N,00852.8469,E,122413,V*3C
$GPVTG,,T,,M,,N,,K*4E
$GPRMC,122414,V,4424.8422,N,00852.8469,E,,,010611,000.9,E*69
$GPGGA,122414,4424.8422,N,00852.8469,E,0,00,,,M,,M,,*5B
$GPGSA,A,1,,,,,,,,,,,,,,,*1E
$GPGSV,3,1,11,02,00,189,00,08,24,065,41,09,19,266,00,15,54,306,00*72
$GPGSV,3,2,11,17,16,125,00,18,12,322,00,21,00,293,00,26,82,086,00*7D
$GPGSV,3,3,11,27,39,274,00,28,56,065,43,33,33,214,00*4D
$GPGLL,4424.8422,N,00852.8469,E,122414,V*3B
$GPVTG,,T,,M,,N,,K*4E
$GPRMC,122415,V,4424.8422,N,00852.8469,E,,,010611,000.9,E*68
$GPGGA,122415,4424.8422,N,00852.8469,E,0,00,,,M,,M,,*5A
$GPGSA,A,1,,,,,,,,,,,,,,,*1E
$GPGSV,3,1,11,02,00,189,00,08,24,065,41,09,19,266,00,15,54,306,00*72
$GPGSV,3,2,11,17,16,125,00,18,12,322,00,21,00,293,00,26,82,086,00*7D
$GPGSV,3,3,11,27,39,274,00,28,56,065,43,33,33,214,00*4D
$GPGLL,4424.8422,N,00852.8469,E,122415,V*3A
$GPVTG,,T,,M,,N,,K*4E
$GPRMC,122416,V,4424.8422,N,00852.8469,E,,,010611,000.9,E*6B
$GPGGA,122416,4424.8422,N,00852.8469,E,0,00,,,M,,M,,*59
$GPGSA,A,1,,,,,,,,,,,,,,,*1E
$GPGSV,3,1,11,02,00,189,00,08,24,065,41,09,19,266,00,15,54,306,00*72
$GPGSV,3,2,11,17,16,125,00,18,12,322,00,21,00,293,00,26,82,086,00*7D
$GPGSV,3,3,11,27,39,274,00,28,56,065,44,33,33,214,00*4A
$GPGLL,4424.8422,N,00852.8469,E,122416,V*39
$GPVTG,,T,,M,,N,,K*4E
$GPRMC,122417,V,4424.8422,N,00852.8469,E,,,010611,000.9,E*6A
$GPGGA,122417,4424.8422,N,00852.8469,E,0,00,,,M,,M,,*58
$GPGSA,A,1,,,,,,,,,,,,,,,*1E
$GPGSV,3,1,11,02,00,189,00,08,24,065,41,09,19,266,00,15,54,306,00*72
$GPGSV,3,2,11,17,16,125,00,18,12,322,00,21,00,293,00,26,82,086,00*7D
$GPGSV,3,3,11,27,39,274,00,28,56,065,44,33,33,214,00*4A
$GPGLL,4424.8422,N,00852.8469,E,122417,V*38
$GPVTG,,T,,M,,N,,K*4E
$GPRMC,122418,V,4424.8422,N,00852.8469,E,,,010611,000.9,E*65
$GPGGA,122418,4424.8422,N,00852.8469,E,0,00,,,M,,M,,*57
$GPGSA,A,1,,,,,,,,,,,,,,,*1E
$GPGSV,3,1,11,02,00,189,00,08,24,065,41,09,19,266,00,15,54,306,00*72
$GPGSV,3,2,11,17,16,125,00,18,12,322,00,21,00,293,00,26,82,086,00*7D
$GPGSV,3,3,11,27,39,274,00,28,56,065,44,33,33,214,00*4A
$GPGLL,4424.8422,N,00852.8469,E,122418,V*37
$GPVTG,,T,,M,,N,,K*4E
$GPRMC,122419,V,4424.8422,N,00852.8469,E,,,010611,000.9,E*64
$GPGGA,122419,4424.8422,N,00852.8469,E,0,00,,,M,,M,,*56
$GPGSA,A,1,,,,,,,,,,,,,,,*1E
$GPGSV,3,1,11,02,00,189,00,03,00,355,00,08,24,065,40,09,19,266,00*73
$GPGSV,3,2,11,15,54,306,00,18,12,322,00,21,00,293,00,26,82,086,00*7A
$GPGSV,3,3,11,27,39,274,00,28,56,065,43,33,33,214,00*4D
$GPGLL,4424.8422,N,00852.8469,E,122419,V*36
$GPVTG,,T,,M,,N,,K*4E
$GPRMC,122420,V,4424.8422,N,00852.8469,E,,,010611,000.9,E*6E
$GPGGA,122420,4424.8422,N,00852.8469,E,0,00,,,M,,M,,*5C
$GPGSA,A,1,,,,,,,,,,,,,,,*1E
$GPGSV,3,1,10,02,00,189,00,03,00,355,00,04,00,155,00,05,27,195,00*70
$GPGSV,3,2,10,08,24,065,39,09,19,266,00,21,00,293,00,26,82,086,00*76
$GPGSV,3,3,10,28,56,065,42,33,33,214,00*73
$GPGLL,4424.8422,N,00852.8469,E,122420,V*3C
$GPVTG,,T,,M,,N,,K*4E
$GPRMC,122421,V,4424.8422,N,00852.8469,E,,,010611,000.9,E*6F
$GPGGA,122421,4424.8422,N,00852.8469,E,0,00,,,M,,M,,*5D
$GPGSA,A,1,,,,,,,,,,,,,,,*1E
$GPGSV,3,1,11,02,00,189,00,03,00,355,00,04,00,155,00,05,27,195,00*71
$GPGSV,3,2,11,06,00,346,00,07,00,074,00,08,24,065,39,21,00,293,00*77
$GPGSV,3,3,11,26,82,086,00,28,56,065,43,33,33,214,00*43
$GPGLL,4424.8422,N,00852.8469,E,122421,V*3D
$GPVTG,,T,,M,,N,,K*4E
$GPRMC,122422,V,4424.8422,N,00852.8469,E,,,010611,000.9,E*6C
$GPGGA,122422,4424.8422,N,00852.8469,E,0,00,,,M,,M,,*5E
$GPGSA,A,1,,,,,,,,,,,,,,,*1E
$GPGSV,3,1,11,03,00,355,00,04,00,155,00,05,27,195,00,06,00,346,00*74
$GPGSV,3,2,11,07,00,074,00,08,24,065,40,09,19,266,00,21,00,292,00*7C
$GPGSV,3,3,11,26,82,086,00,28,56,065,43,33,33,214,00*43
$GPGLL,4424.8422,N,00852.8469,E,122422,V*3E
$GPVTG,,T,,M,,N,,K*4E
$GPRMC,122423,V,4424.8422,N,00852.8469,E,,,010611,000.9,E*6D
$GPGGA,122423,4424.8422,N,00852.8469,E,0,00,,,M,,M,,*5F
$GPGSA,A,1,,,,,,,,,,,,,,,*1E
$GPGSV,3,1,11,03,00,355,00,04,00,155,00,05,27,195,00,06,00,346,00*74
$GPGSV,3,2,11,07,00,074,00,08,24,065,39,09,19,266,00,21,00,292,00*72
$GPGSV,3,3,11,26,82,086,00,28,56,065,42,33,33,214,00*42
$GPGLL,4424.8422,N,00852.8469,E,122423,V*3F
$GPVTG,,T,,M,,N,,K*4E
$GPRMC,122424,V,4424.8422,N,00852.8469,E,,,010611,000.9,E*6A
$GPGGA,122424,4424.8422,N,00852.8469,E,0,00,,,M,,M,,*58
$GPGSA,A,1,,,,,,,,,,,,,,,*1E
$GPGSV,3,1,11,03,00,355,00,04,00,155,00,05,27,195,00,06,00,346,00*74
$GPGSV,3,2,11,07,00,074,00,08,24,065,39,09,19,266,00,21,00,292,00*72
$GPGSV,3,3,11,26,82,086,00,28,56,065,41,33,33,214,00*41
$GPGLL,4424.8422,N,00852.8469,E,122424,V*38
$GPVTG,,T,,M,,N,,K*4E
$GPRMC,122425,V,4424.8422,N,00852.8469,E,,,010611,000.9,E*6B
$GPGGA,122425,4424.8422,N,00852.8469,E,0,00,,,M,,M,,*59
$GPGSA,A,1,,,,,,,,,,,,,,,*1E
$GPGSV,3,1,11,03,00,355,00,04,00,155,00,05,27,195,00,06,00,346,00*74
$GPGSV,3,2,11,07,00,074,00,08,24,065,38,09,19,266,00,10,00,164,00*7B
$GPGSV,3,3,11,26,82,086,00,28,56,065,40,33,33,214,00*40
$GPGLL,4424.8422,N,00852.8469,E,122425,V*39
$GPVTG,,T,,M,,N,,K*4E
$GPRMC,122426,V,4424.8422,N,00852.8469,E,,,010611,000.9,E*68
$GPGGA,122426,4424.8422,N,00852.8469,E,0,00,,,M,,M,,*5A
$GPGSA,A,1,,,,,,,,,,,,,,,*1E
$GPGSV,3,1,11,03,00,355,00,04,00,155,00,05,27,195,00,06,00,346,00*74
$GPGSV,3,2,11,07,00,074,00,08,24,065,38,09,19,266,00,10,00,164,00*7B
$GPGSV,3,3,11,26,82,086,00,28,56,065,40,33,33,214,00*40
$GPGLL,4424.8422,N,00852.8469,E,122426,V*3A
$GPVTG,,T,,M,,N,,K*4E
$GPRMC,122427,V,4424.8422,N,00852.8469,E,,,010611,000.9,E*69
$GPGGA,122427,4424.8422,N,00852.8469,E,0,00,,,M,,M,,*5B
$GPGSA,A,1,,,,,,,,,,,,,,,*1E
$GPGSV,3,1,11,03,00,355,00,04,00,155,00,05,27,195,00,06,00,346,00*74
$GPGSV,3,2,11,07,00,074,00,08,24,065,38,09,19,266,00,10,00,164,00*7B
$GPGSV,3,3,11,11,00,052,00,28,56,065,39,33,33,214,00*49
$GPGLL,4424.8422,N,00852.8469,E,122427,V*3B
$GPVTG,,T,,M,,N,,K*4E
$GPRMC,122428,V,4424.8422,N,00852.8469,E,,,010611,000.9,E*66
$GPGGA,122428,4424.8422,N,00852.8469,E,0,00,,,M,,M,,*54
$GPGSA,A,1,,,,,,,,,,,,,,,*1E
$GPGSV,3,1,11,03,00,355,00,04,00,155,00,05,27,195,00,06,00,346,00*74
$GPGSV,3,2,11,07,00,074,00,08,24,065,38,09,19,266,00,10,00,164,00*7B
$GPGSV,3,3,11,11,00,052,00,28,56,065,39,33,33,214,00*49
$GPGLL,4424.8422,N,00852.8469,E,122428,V*34
$GPVTG,,T,,M,,N,,K*4E
$GPRMC,122429,V,4424.8422,N,00852.8469,E,,,010611,000.9,E*67
$GPGGA,122429,4424.8422,N,00852.8469,E,0,00,,,M,,M,,*55
$GPGSA,A,1,,,,,,,,,,,,,,,*1E
$GPGSV,3,1,11,03,00,355,00,04,00,155,00,05,27,195,00,06,00,346,00*74
$GPGSV,3,2,11,07,00,074,00,08,24,065,38,09,19,266,00,10,00,164,00*7B
$GPGSV,3,3,11,11,00,052,00,28,56,065,39,33,33,214,00*49
$GPGLL,4424.8422,N,00852.8469,E,122429,V*35
$GPVTG,,T,,M,,N,,K*4E
$GPRMC,122430,V,4424.8422,N,00852.8469,E,,,010611,000.9,E*6F
$GPGGA,122430,4424.8422,N,00852.8469,E,0,00,,,M,,M,,*5D
$GPGSA,A,1,,,,,,,,,,,,,,,*1E
$GPGSV,3,1,11,03,00,355,00,04,00,155,00,05,27,195,00,06,00,346,00*74
$GPGSV,3,2,11,07,00,074,00,08,24,065,37,09,19,266,00,10,00,164,00*74
$GPGSV,3,3,11,11,00,052,00,28,56,065,39,33,33,214,00*49
$GPGLL,4424.8422,N,00852.8469,E,122430,V*3D
$GPVTG,,T,,M,,N,,K*4E
$GPRMC,122431,V,4424.8422,N,00852.8469,E,,,010611,000.9,E*6E
$GPGGA,122431,4424.8422,N,00852.8469,E,0,00,,,M,,M,,*5C
$GPGSA,A,1,,,,,,,,,,,,,,,*1E
$GPGSV,3,1,11,03,00,355,00,04,00,155,00,05,27,195,00,06,00,346,00*74
$GPGSV,3,2,11,07,00,074,00,08,24,065,37,09,19,266,00,10,00,164,00*74
$GPGSV,3,3,11,11,00,052,00,28,56,065,39,33,33,214,00*49
$GPGLL,4424.8422,N,00852.8469,E,122431,V*3C
$GPVTG,,T,,M,,N,,K*4E
$GPRMC,122432,V,4424.8422,N,00852.8469,E,,,010611,000.9,E*6D
$GPGGA,122432,4424.8422,N,00852.8469,E,0,00,,,M,,M,,*5F
$GPGSA,A,1,,,,,,,,,,,,,,,*1E
$GPGSV,3,1,11,03,00,355,00,04,00,155,00,05,27,195,00,06,00,346,00*74
$GPGSV,3,2,11,07,00,074,00,08,24,065,38,09,19,266,00,10,00,164,00*7B
$GPGSV,3,3,11,11,00,052,00,28,56,065,38,33,33,214,00*48
$GPGLL,4424.8422,N,00852.8469,E,122432,V*3F
$GPVTG,,T,,M,,N,,K*4E
$GPRMC,122433,V,4424.8422,N,00852.8469,E,,,010611,000.9,E*6C
$GPGGA,122433,4424.8422,N,00852.8469,E,0,00,,,M,,M,,*5E
$GPGSA,A,1,,,,,,,,,,,,,,,*1E
$GPGSV,3,1,11,03,00,355,00,04,00,155,00,05,27,195,00,06,00,346,00*74
$GPGSV,3,2,11,07,00,074,00,08,24,065,38,09,19,266,00,10,00,164,00*7B
$GPGSV,3,3,11,11,00,052,00,28,56,065,39,33,33,214,00*49
$GPGLL,4424.8422,N,00852.8469,E,122433,V*3E
$GPVTG,,T,,M,,N,,K*4E
$GPRMC,122434,V,4424.8422,N,00852.8469,E,,,010611,000.9,E*6B
$GPGGA,122434,4424.8422,N,00852.8469,E,0,00,,,M,,M,,*59
$GPGSA,A,1,,,,,,,,,,,,,,,*1E
$GPGSV,3,1,11,03,00,355,00,04,00,155,00,05,27,195,00,06,00,346,00*74
$GPGSV,3,2,11,07,00,074,00,08,24,065,37,09,19,266,00,10,00,164,00*74
$GPGSV,3,3,11,11,00,052,00,28,56,065,39,33,33,214,00*49
$GPGLL,4424.8422,N,00852.8469,E,122434,V*39
$GPVTG,,T,,M,,N,,K*4E
$GPRMC,122435,V,4424.8422,N,00852.8469,E,,,010611,000.9,E*6A
$GPGGA,122435,4424.8422,N,00852.8469,E,0,00,,,M,,M,,*58
$GPGSA,A,1,,,,,,,,,,,,,,,*1E
$GPGSV,3,1,11,03,00,355,00,04,00,155,00,05,27,195,00,06,00,346,00*74
$GPGSV,3,2,11,07,00,074,00,08,24,065,00,09,19,266,00,10,00,164,00*70
$GPGSV,3,3,11,11,00,052,00,28,56,065,37,33,33,214,00*47
$GPGLL,4424.8422,N,00852.8469,E,122435,V*38
$GPVTG,,T,,M,,N,,K*4E
$GPRMC,122436,V,4424.8422,N,00852.8469,E,,,010611,000.9,E*69
$GPGGA,122436,4424.8422,N,00852.8469,E,0,00,,,M,,M,,*5B
$GPGSA,A,1,,,,,,,,,,,,,,,*1E
$GPGSV,3,1,11,03,00,355,00,04,00,155,00,05,27,195,00,06,00,346,00*74
$GPGSV,3,2,11,07,00,074,00,08,24,065,00,09,19,266,00,10,00,164,00*70
$GPGSV,3,3,11,11,00,052,00,28,56,065,00,33,33,214,00*43
$GPGLL,4424.8422,N,00852.8469,E,122436,V*3B
$GPVTG,,T,,M,,N,,K*4E
$GPRMC,122437,V,4424.8422,N,00852.8469,E,,,010611,000.9,E*68
$GPGGA,122437,4424.8422,N,00852.8469,E,0,00,,,M,,M,,*5A
$GPGSA,A,1,,,,,,,,,,,,,,,*1E
$GPGSV,3,1,11,03,00,355,00,04,00,155,00,05,27,195,00,06,00,346,00*74
$GPGSV,3,2,11,07,00,074,00,08,24,065,00,09,19,266,00,10,00,164,00*70
$GPGSV,3,3,11,11,00,052,00,28,56,065,00,33,33,214,00*43
$GPGLL,4424.8422,N,00852.8469,E,122437,V*3A
$GPVTG,,T,,M,,N,,K*4E
$GPRMC,122438,V,4424.8422,N,00852.8469,E,,,010611,000.9,E*67
$GPGGA,122438,4424.8422,N,00852.8469,E,0,00,,,M,,M,,*55
$GPGSA,A,1,,,,,,,,,,,,,,,*1E
$GPGSV,3,1,11,03,00,355,00,04,00,155,00,05,27,195,00,06,00,346,00*74
$GPGSV,3,2,11,07,00,074,00,08,24,065,36,09,19,266,00,10,00,164,00*75
$GPGSV,3,3,11,11,00,052,00,28,56,065,40,33,33,214,00*47
$GPGLL,4424.8422,N,00852.8469,E,122438,V*35
$GPVTG,,T,,M,,N,,K*4E
$GPRMC,122439,V,4424.8422,N,00852.8469,E,,,010611,000.9,E*66
$GPGGA,122439,4424.8422,N,00852.8469,E,0,00,,,M,,M,,*54
$GPGSA,A,1,,,,,,,,,,,,,,,*1E
$GPGSV,3,1,11,03,00,355,00,04,00,155,00,05,27,195,00,06,00,346,00*74
$GPGSV,3,2,11,07,00,074,00,08,24,065,37,09,19,266,00,10,00,164,00*74
$GPGSV,3,3,11,11,00,052,00,28,56,065,40,33,33,214,00*47
$GPGLL,4424.8422,N,00852.8469,E,122439,V*34
$GPVTG,,T,,M,,N,,K*4E
$GPRMC,122440,V,4424.8422,N,00852.8469,E,,,010611,000.9,E*68
$GPGGA,122440,4424.8422,N,00852.8469,E,0,00,,,M,,M,,*5A
$GPGSA,A,1,,,,,,,,,,,,,,,*1E
$GPGSV,3,1,11,03,00,355,00,04,00,155,00,05,27,195,00,06,00,346,00*74
$GPGSV,3,2,11,07,00,074,00,08,24,065,37,09,19,266,00,10,00,164,00*74
$GPGSV,3,3,11,11,00,052,00,28,56,065,40,33,33,214,00*47
$GPGLL,4424.8422,N,00852.8469,E,122440,V*3A
$GPVTG,,T,,M,,N,,K*4E
$GPRMC,122441,V,4424.8422,N,00852.8469,E,,,010611,000.9,E*69
$GPGGA,122441,4424.8422,N,00852.8469,E,0,00,,,M,,M,,*5B
$GPGSA,A,1,,,,,,,,,,,,,,,*1E
$GPGSV,3,1,11,03,00,355,00,04,00,155,00,05,27,195,00,06,00,346,00*74
$GPGSV,3,2,11,07,00,074,00,08,24,065,36,09,19,266,00,10,00,164,00*75
$GPGSV,3,3,11,11,00,052,00,28,56,065,40,33,33,214,00*47
$GPGLL,4424.8422,N,00852.8469,E,122441,V*3B
$GPVTG,,T,,M,,N,,K*4E
$GPRMC,122442,V,4424.8422,N,00852.8469,E,,,010611,000.9,E*6A
$GPGGA,122442,4424.8422,N,00852.8469,E,0,00,,,M,,M,,*58
$GPGSA,A,1,,,,,,,,,,,,,,,*1E
$GPGSV,3,1,11,03,00,355,00,04,00,155,00,05,27,195,00,06,00,346,00*74
$GPGSV,3,2,11,07,00,074,00,08,24,065,36,09,19,266,00,10,00,164,00*75
$GPGSV,3,3,11,11,00,052,00,28,56,065,40,33,33,214,00*47
$GPGLL,4424.8422,N,00852.8469,E,122442,V*38
$GPVTG,,T,,M,,N,,K*4E
$GPRMC,122443,V,4424.8422,N,00852.8469,E,,,010611,000.9,E*6B
$GPGGA,122443,4424.8422,N,00852.8469,E,0,00,,,M,,M,,*59
$GPGSA,A,1,,,,,,,,,,,,,,,*1E
$GPGSV,3,1,11,03,00,355,00,04,00,155,00,05,27,195,00,06,00,346,00*74
$GPGSV,3,2,11,07,00,074,00,08,24,065,36,09,19,266,00,10,00,164,00*75
$GPGSV,3,3,11,11,00,052,00,28,56,065,40,33,33,214,00*47
$GPGLL,4424.8422,N,00852.8469,E,122443,V*39
$GPVTG,,T,,M,,N,,K*4E
$GPRMC,122444,V,4424.8422,N,00852.8469,E,,,010611,000.9,E*6C
$GPGGA,122444,4424.8422,N,00852.8469,E,0,00,,,M,,M,,*5E
$GPGSA,A,1,,,,,,,,,,,,,,,*1E
$GPGSV,3,1,11,03,00,355,00,04,00,155,00,05,27,195,00,06,00,346,00*74
$GPGSV,3,2,11,07,00,074,00,08,24,065,37,09,19,266,00,10,00,164,00*74
$GPGSV,3,3,11,11,00,052,00,28,56,065,40,33,33,214,00*47
$GPGLL,4424.8422,N,00852.8469,E,122444,V*3E
$GPVTG,,T,,M,,N,,K*4E
$GPRMC,122445,V,4424.8422,N,00852.8469,E,,,010611,000.9,E*6D
$GPGGA,122445,4424.8422,N,00852.8469,E,0,00,,,M,,M,,*5F
$GPGSA,A,1,,,,,,,,,,,,,,,*1E
$GPGSV,3,1,11,03,00,355,00,04,00,155,00,05,26,195,00,06,00,346,00*75
$GPGSV,3,2,11,07,00,074,00,08,24,065,37,09,19,266,00,10,00,164,00*74
$GPGSV,3,3,11,11,00,052,00,28,56,065,40,33,33,214,00*47
$GPGLL,4424.8422,N,00852.8469,E,122445,V*3F
$GPVTG,,T,,M,,N,,K*4E
$GPRMC,122446,V,4424.8422,N,00852.8469,E,,,010611,000.9,E*6E
$GPGGA,122446,4424.8422,N,00852.8469,E,0,00,,,M,,M,,*5C
$GPGSA,A,1,,,,,,,,,,,,,,,*1E
$GPGSV,3,1,11,03,00,355,00,04,00,155,00,05,26,195,00,06,00,346,00*75
$GPGSV,3,2,11,07,00,074,00,08,24,065,38,09,19,266,00,10,00,164,00*7B
$GPGSV,3,3,11,11,00,052,00,28,56,065,40,33,33,214,00*47
$GPGLL,4424.8422,N,00852.8469,E,122446,V*3C
$GPVTG,,T,,M,,N,,K*4E
$GPRMC,122447,V,4424.8422,N,00852.8469,E,,,010611,000.9,E*6F
$GPGGA,122447,4424.8422,N,00852.8469,E,0,00,,,M,,M,,*5D
$GPGSA,A,1,,,,,,,,,,,,,,,*1E
$GPGSV,3,1,11,03,00,355,00,04,00,155,00,05,26,195,00,06,00,346,00*75
$GPGSV,3,2,11,07,00,074,00,08,24,065,38,09,19,266,00,10,00,164,00*7B
$GPGSV,3,3,11,11,00,052,00,28,56,065,40,33,33,214,00*47
$GPGLL,4424.8422,N,00852.8469,E,122447,V*3D
$GPVTG,,T,,M,,N,,K*4E
$GPRMC,122448,V,4424.8422,N,00852.8469,E,,,010611,000.9,E*60
$GPGGA,122448,4424.8422,N,00852.8469,E,0,00,,,M,,M,,*52
$GPGSA,A,1,,,,,,,,,,,,,,,*1E
$GPGSV,3,1,11,03,00,355,00,04,00,155,00,05,26,195,00,06,00,346,00*75
$GPGSV,3,2,11,07,00,074,00,08,24,065,38,09,19,266,00,10,00,164,00*7B
$GPGSV,3,3,11,11,00,052,00,28,56,065,39,33,33,214,00*49
$GPGLL,4424.8422,N,00852.8469,E,122448,V*32
$GPVTG,,T,,M,,N,,K*4E
$GPRMC,122449,V,4424.8422,N,00852.8469,E,,,010611,000.9,E*61
$GPGGA,122449,4424.8422,N,00852.8469,E,0,00,,,M,,M,,*53
$GPGSA,A,1,,,,,,,,,,,,,,,*1E
$GPGSV,3,1,11,03,00,355,00,04,00,155,00,05,26,195,00,06,00,346,00*75
$GPGSV,3,2,11,07,00,074,00,08,24,065,38,09,19,266,00,10,00,164,00*7B
$GPGSV,3,3,11,11,00,052,00,28,55,064,39,33,33,214,00*4B
$GPGLL,4424.8422,N,00852.8469,E,122449,V*33
$GPVTG,,T,,M,,N,,K*4E
$GPRMC,122450,V,4424.8422,N,00852.8469,E,,,010611,000.9,E*69
$GPGGA,122450,4424.8422,N,00852.8469,E,0,00,,,M,,M,,*5B
$GPGSA,A,1,,,,,,,,,,,,,,,*1E
$GPGSV,3,1,11,03,00,355,00,04,00,155,00,05,26,195,00,06,00,346,00*75
$GPGSV,3,2,11,07,00,074,00,08,24,065,38,09,19,266,00,10,00,164,00*7B
$GPGSV,3,3,11,11,00,052,00,28,55,064,39,33,33,214,00*4B
$GPGLL,4424.8422,N,00852.8469,E,122450,V*3B
$GPVTG,,T,,M,,N,,K*4E
$GPRMC,122451,V,4424.8422,N,00852.8469,E,,,010611,000.9,E*68
$GPGGA,122451,4424.8422,N,00852.8469,E,0,00,,,M,,M,,*5A
$GPGSA,A,1,,,,,,,,,,,,,,,*1E
$GPGSV,3,1,11,03,00,355,00,04,00,155,00,05,26,195,00,06,00,346,00*75
$GPGSV,3,2,11,07,00,074,00,08,24,065,38,09,19,266,00,10,00,164,00*7B
$GPGSV,3,3,11,11,00,052,00,28,55,064,40,33,33,214,00*45
$GPGLL,4424.8422,N,00852.8469,E,122451,V*3A
$GPVTG,,T,,M,,N,,K*4E
$GPRMC,122452,V,4424.8422,N,00852.8469,E,,,010611,000.9,E*6B
$GPGGA,122452,4424.8422,N,00852.8469,E,0,00,,,M,,M,,*59
$GPGSA,A,1,,,,,,,,,,,,,,,*1E
$GPGSV,3,1,11,03,00,355,00,04,00,155,00,05,26,195,00,06,00,346,00*75
$GPGSV,3,2,11,07,00,074,00,08,24,065,39,09,19,266,00,10,00,164,00*7A
$GPGSV,3,3,11,11,00,052,00,28,55,064,41,33,33,214,00*44
$GPGLL,4424.8422,N,00852.8469,E,122452,V*39
$GPVTG,,T,,M,,N,,K*4E
$GPRMC,122453,V,4424.8422,N,00852.8469,E,,,010611,000.9,E*6A
$GPGGA,122453,4424.8422,N,00852.8469,E,0,00,,,M,,M,,*58
$GPGSA,A,1,,,,,,,,,,,,,,,*1E
$GPGSV,3,1,11,03,00,355,00,04,00,155,00,05,26,195,00,06,00,346,00*75
$GPGSV,3,2,11,07,00,074,00,08,24,065,39,09,19,266,00,10,00,164,00*7A
$GPGSV,3,3,11,11,00,052,00,28,55,064,41,33,33,214,00*44
$GPGLL,4424.8422,N,00852.8469,E,122453,V*38
$GPVTG,,T,,M,,N,,K*4E
$GPRMC,122454,V,4424.8422,N,00852.8469,E,,,010611,000.9,E*6D
$GPGGA,122454,4424.8422,N,00852.8469,E,0,00,,,M,,M,,*5F
$GPGSA,A,1,,,,,,,,,,,,,,,*1E
$GPGSV,3,1,11,03,00,355,00,04,00,155,00,05,26,195,00,06,00,346,00*75
$GPGSV,3,2,11,07,00,074,00,08,24,065,40,09,19,266,00,10,00,164,00*74
$GPGSV,3,3,11,11,00,052,00,28,55,064,42,33,33,214,00*47
$GPGLL,4424.8422,N,00852.8469,E,122454,V*3F
$GPVTG,,T,,M,,N,,K*4E
$GPRMC,122455,V,4424.8422,N,00852.8469,E,,,010611,000.9,E*6C
$GPGGA,122455,4424.8422,N,00852.8469,E,0,00,,,M,,M,,*5E
$GPGSA,A,1,,,,,,,,,,,,,,,*1E
$GPGSV,3,1,11,03,00,355,00,04,00,155,00,05,26,195,00,06,00,346,00*75
